2016-08-27 10:20	$GPRMC,002050.00,A,3645.8337,S,14419.2885,E,0.0,222.5,270816,10.9,E,A*1F
2016-08-27 10:20	$WIMDA,30.2269,I,1.0236,B,13.8,C,,,45.9,,2.3,C,80.6,T,69.7,M,1.2,N,0.6,M*53
2016-08-27 10:20	$HCHDG,293.5,0.0,E,10.9,E*77
2016-08-27 10:20	$WIMWV,136.9,R,1.3,N,A*2C
2016-08-27 10:20	$WIMWD,81.1,T,70.2,M,1.2,N,0.6,M*52
2016-08-27 10:20	$GPGSA,A,3,22,23,1,14,31,32,11,3,26,,,,2.0,1.1,1.6*36
2016-08-27 10:20	$GPRMC,002051.00,A,3645.8337,S,14419.2887,E,0.0,16.5,270816,10.9,E,A*29
2016-08-27 10:20	$WIMDA,30.2239,I,1.0235,B,13.8,C,,,45.9,,2.3,C,73.0,T,62.1,M,1.0,N,0.5,M*53
2016-08-27 10:20	$HCHDG,293.5,0.0,E,10.9,E*77
2016-08-27 10:20	$WIMWV,144.5,R,1.0,N,A*26
2016-08-27 10:20	$WIMWD,91.0,T,80.1,M,1.0,N,0.5,M*5F
2016-08-27 10:20	$GPGSA,A,3,22,23,1,14,31,32,11,3,26,,,,2.0,1.1,1.6*36
2016-08-27 10:20	$GPRMC,002052.00,A,3645.8337,S,14419.2888,E,0.0,201.3,270816,10.9,E,A*17
2016-08-27 10:20	$WIMDA,30.2239,I,1.0235,B,13.8,C,,,45.9,,2.3,C,82.0,T,71.1,M,0.7,N,0.4,M*58
2016-08-27 10:20	$HCHDG,293.5,0.0,E,10.9,E*77
2016-08-27 10:20	$WIMWV,133.0,R,0.8,N,A*2A
2016-08-27 10:20	$WIMWD,75.9,T,65.0,M,0.8,N,0.4,M*5E
2016-08-27 10:20	$GPGSA,A,3,22,23,1,14,31,32,11,3,26,,,,2.0,1.1,1.6*36
2016-08-27 10:20	$GPRMC,002053.00,A,3645.8337,S,14419.2888,E,0.0,14.2,270816,10.9,E,A*21
2016-08-27 10:20	$WIMDA,30.2239,I,1.0235,B,13.8,C,,,46.0,,2.3,C,68.0,T,57.1,M,0.9,N,0.5,M*5D
2016-08-27 10:20	$HCHDG,293.6,0.0,E,10.9,E*74
2016-08-27 10:20	$WIMWV,121.8,R,0.9,N,A*20
2016-08-27 10:20	$WIMWD,66.6,T,55.7,M,0.8,N,0.4,M*57
2016-08-27 10:20	$GPGSA,A,3,22,23,1,14,31,32,11,3,26,,,,2.0,1.1,1.6*36
2016-08-27 10:20	$GPRMC,002054.00,A,3645.8337,S,14419.2889,E,0.0,127.1,270816,10.9,E,A*15
2016-08-27 10:20	$WIMDA,30.2239,I,1.0235,B,13.8,C,,,45.9,,2.3,C,106.0,T,95.1,M,0.6,N,0.3,M*69
2016-08-27 10:20	$HCHDG,293.5,0.0,E,10.9,E*77
2016-08-27 10:20	$WIMWV,135.3,R,0.7,N,A*20
2016-08-27 10:20	$WIMWD,72.5,T,61.6,M,1.0,N,0.5,M*5F
2016-08-27 10:20	$GPGSA,A,3,22,23,1,14,31,32,11,3,26,,,,2.0,1.1,1.6*36
2016-08-27 10:20	$GPRMC,002055.00,A,3645.8336,S,14419.2891,E,0.0,54.0,270816,10.9,E,A*28
2016-08-27 10:20	$WIMDA,30.2210,I,1.0234,B,13.8,C,,,45.9,,2.3,C,68.2,T,57.3,M,0.9,N,0.5,M*5D
2016-08-27 10:20	$HCHDG,293.6,0.0,E,10.9,E*74
2016-08-27 10:20	$WIMWV,122.8,R,0.7,N,A*2D
2016-08-27 10:20	$WIMWD,68.1,T,57.2,M,0.6,N,0.3,M*50
2016-08-27 10:20	$GPGSA,A,3,22,23,1,14,31,32,11,3,26,,,,2.0,1.1,1.6*36
2016-08-27 10:20	$GPRMC,002056.00,A,3645.8335,S,14419.2891,E,0.0,290.7,270816,10.9,E,A*15
2016-08-27 10:20	$WIMDA,30.2239,I,1.0235,B,13.9,C,,,45.9,,2.4,C,62.5,T,51.6,M,0.3,N,0.2,M*52
2016-08-27 10:20	$HCHDG,293.5,0.0,E,10.9,E*77
2016-08-27 10:20	$WIMWV,92.3,R,0.3,N,A*18
2016-08-27 10:20	$WIMWD,36.7,T,25.8,M,0.3,N,0.2,M*56
2016-08-27 10:20	$GPGSA,A,3,22,23,1,14,31,32,11,3,26,,,,2.0,1.1,1.6*36
2016-08-27 10:20	$GPRMC,002057.00,A,3645.8335,S,14419.2892,E,0.0,66.9,270816,10.9,E,A*22
2016-08-27 10:20	$WIMDA,30.2239,I,1.0235,B,13.9,C,,,46.0,,2.4,C,36.8,T,25.9,M,0.2,N,0.1,M*5A
2016-08-27 10:20	$HCHDG,293.6,0.0,E,10.9,E*74
2016-08-27 10:20	$WIMWV,92.3,R,0.3,N,A*18
2016-08-27 10:20	$WIMWD,352.9,T,342.0,M,0.4,N,0.2,M*54
2016-08-27 10:21	$GPGSA,A,3,22,23,1,14,31,32,11,3,26,,,,2.0,1.1,1.6*36
2016-08-27 10:21	$GPRMC,002058.00,A,3645.8335,S,14419.2893,E,0.0,258.1,270816,10.9,E,A*1B
2016-08-27 10:21	$WIMDA,30.2210,I,1.0234,B,13.9,C,,,45.9,,2.4,C,36.7,T,25.8,M,0.3,N,0.2,M*56
2016-08-27 10:21	$HCHDG,293.5,0.0,E,10.9,E*77
2016-08-27 10:21	$WIMWV,181.7,R,0.2,N,A*2E
2016-08-27 10:21	$WIMWD,126.2,T,115.3,M,0.2,N,0.1,M*58
2016-08-27 10:21	$GPGSA,A,3,22,23,1,14,31,32,11,3,26,,,,2.0,1.1,1.6*36
2016-08-27 10:21	$GPRMC,002059.00,A,3645.8335,S,14419.2894,E,0.0,334.3,270816,10.9,E,A*14
2016-08-27 10:21	$WIMDA,30.2210,I,1.0234,B,13.9,C,,,46.0,,2.4,C,156.3,T,145.4,M,0.6,N,0.3,M*50
2016-08-27 10:21	$HCHDG,293.6,0.0,E,10.9,E*74
2016-08-27 10:21	$WIMWV,201.9,R,0.5,N,A*2C
2016-08-27 10:21	$WIMWD,149.0,T,138.1,M,0.5,N,0.3,M*5B
2016-08-27 10:21	$GPGSA,A,3,22,23,1,14,31,32,11,3,26,,,,2.0,1.1,1.6*36
2016-08-27 10:21	$GPRMC,002100.00,A,3645.8335,S,14419.2896,E,0.0,197.1,270816,10.9,E,A*12
2016-08-27 10:21	$WIMDA,30.2210,I,1.0234,B,13.9,C,,,46.0,,2.4,C,36.7,T,25.8,M,1.0,N,0.5,M*59
2016-08-27 10:21	$HCHDG,293.6,0.0,E,10.9,E*74
2016-08-27 10:21	$WIMWV,70.0,R,0.8,N,A*1C
2016-08-27 10:21	$WIMWD,10.8,T,359.9,M,0.8,N,0.4,M*69
2016-08-27 10:21	$GPGSA,A,3,22,23,1,14,31,32,11,3,26,,,,2.0,1.1,1.6*36
2016-08-27 10:21	$GPRMC,002101.00,A,3645.8335,S,14419.2897,E,0.0,227.5,270816,10.9,E,A*1E
2016-08-27 10:21	$WIMDA,30.2210,I,1.0234,B,13.9,C,,,46.0,,2.4,C,179.2,T,168.3,M,0.6,N,0.3,M*54
2016-08-27 10:21	$HCHDG,293.5,0.0,E,10.9,E*77
2016-08-27 10:21	$WIMWV,227.6,R,0.9,N,A*2B
2016-08-27 10:21	$WIMWD,170.5,T,159.6,M,1.0,N,0.5,M*56
2016-08-27 10:21	$GPGSA,A,3,22,23,1,14,31,32,11,3,26,,,,2.0,1.1,1.6*36
2016-08-27 10:21	$GPRMC,002102.00,A,3645.8335,S,14419.2896,E,0.0,204.4,270816,10.9,E,A*1C
2016-08-27 10:21	$WIMDA,30.2210,I,1.0234,B,13.9,C,,,46.0,,2.4,C,183.8,T,172.9,M,0.7,N,0.4,M*5C
2016-08-27 10:21	$HCHDG,293.5,0.0,E,10.9,E*77
2016-08-27 10:21	$WIMWV,1.6,R,0.8,N,A*2C
2016-08-27 10:21	$WIMWD,306.0,T,295.1,M,1.0,N,0.5,M*54
2016-08-27 10:21	$GPGSA,A,3,22,23,1,14,31,32,11,3,26,,,,2.0,1.1,1.6*36
2016-08-27 10:21	$GPRMC,002103.00,A,3645.8335,S,14419.2894,E,0.0,284.8,270816,10.9,E,A*1B
2016-08-27 10:21	$WIMDA,30.2210,I,1.0234,B,13.9,C,,,46.0,,2.4,C,324.3,T,313.4,M,1.5,N,0.8,M*5F
2016-08-27 10:21	$HCHDG,293.6,0.0,E,10.9,E*74
2016-08-27 10:21	$WIMWV,20.1,R,1.5,N,A*14
2016-08-27 10:21	$WIMWD,322.3,T,311.4,M,1.5,N,0.8,M*51
2016-08-27 10:21	$GPGSA,A,3,22,23,1,14,31,32,11,3,26,,,,2.0,1.1,1.6*36
2016-08-27 10:21	$GPRMC,002104.00,A,3645.8335,S,14419.2892,E,0.0,6.7,270816,10.9,E,A*1D
2016-08-27 10:21	$WIMDA,30.2180,I,1.0233,B,13.8,C,,,46.1,,2.4,C,331.2,T,320.3,M,1.3,N,0.7,M*59
2016-08-27 10:21	$HCHDG,293.6,0.0,E,10.9,E*74
2016-08-27 10:21	$WIMWV,33.6,R,1.5,N,A*11
2016-08-27 10:21	$WIMWD,340.4,T,329.5,M,1.6,N,0.8,M*5B
2016-08-27 10:21	$GPGSA,A,3,22,23,1,14,31,32,11,3,26,,,,2.0,1.1,1.6*36
2016-08-27 10:21	$GPRMC,002105.00,A,3645.8334,S,14419.2891,E,0.0,269.8,270816,10.9,E,A*1A
2016-08-27 10:21	$WIMDA,30.2180,I,1.0233,B,13.8,C,,,46.1,,2.4,C,351.1,T,340.2,M,1.8,N,0.9,M*5E
2016-08-27 10:21	$HCHDG,293.6,0.0,E,10.9,E*74
2016-08-27 10:21	$WIMWV,34.2,R,1.8,N,A*1F
2016-08-27 10:21	$WIMWD,336.1,T,325.2,M,1.6,N,0.8,M*54
2016-08-27 10:21	$GPGSA,A,3,22,23,1,14,31,32,11,3,26,,,,2.0,1.1,1.6*36
2016-08-27 10:21	$GPRMC,002106.00,A,3645.8333,S,14419.2893,E,0.0,177.9,270816,10.9,E,A*11
2016-08-27 10:21	$WIMDA,30.2180,I,1.0233,B,13.8,C,,,46.1,,2.4,C,306.0,T,295.1,M,0.2,N,0.1,M*54
2016-08-27 10:21	$HCHDG,293.5,0.0,E,10.9,E*77
2016-08-27 10:21	$WIMWV,1.6,R,0.0,N,A*24
2016-08-27 10:21	$WIMWD,0.0,T,349.1,M,0.0,N,0.0,M*55
2016-08-27 10:21	$GPGSA,A,3,22,23,1,14,31,32,11,3,26,,,,2.0,1.1,1.6*36
2016-08-27 10:21	$GPRMC,002107.00,A,3645.8332,S,14419.2894,E,0.0,5.8,270816,10.9,E,A*13
2016-08-27 10:21	$WIMDA,30.2180,I,1.0233,B,13.8,C,,,46.1,,2.4,C,215.8,T,204.9,M,0.3,N,0.2,M*5D
2016-08-27 10:21	$HCHDG,293.6,0.0,E,10.9,E*74
2016-08-27 10:21	$WIMWV,271.3,R,0.3,N,A*27
2016-08-27 10:21	$WIMWD,215.8,T,204.9,M,0.2,N,0.1,M*58
2016-08-27 10:21	$GPGSA,A,3,22,23,1,14,31,32,11,3,26,,,,2.0,1.1,1.6*36
2016-08-27 10:21	$GPRMC,002108.00,A,3645.8332,S,14419.2896,E,0.0,56.2,270816,10.9,E,A*22
2016-08-27 10:21	$WIMDA,30.2151,I,1.0232,B,13.8,C,,,46.2,,2.4,C,258.7,T,247.8,M,0.5,N,0.3,M*54
2016-08-27 10:21	$HCHDG,293.6,0.0,E,10.9,E*74
2016-08-27 10:21	$WIMWV,308.9,R,0.6,N,A*27
2016-08-27 10:21	$WIMWD,249.5,T,238.6,M,0.5,N,0.3,M*59
2016-08-27 10:21	$GPGSA,A,3,22,23,1,14,31,32,11,3,26,,,,2.0,1.1,1.6*36
2016-08-27 10:21	$GPRMC,002109.00,A,3645.8331,S,14419.2895,E,0.0,43.8,270816,10.9,E,A*2D
2016-08-27 10:21	$WIMDA,30.2180,I,1.0233,B,13.8,C,,,46.2,,2.4,C,287.8,T,276.9,M,0.7,N,0.4,M*52
2016-08-27 10:21	$HCHDG,293.6,0.0,E,10.9,E*74
2016-08-27 10:21	$WIMWV,1.6,R,0.8,N,A*2C
2016-08-27 10:21	$WIMWD,306.0,T,295.1,M,0.8,N,0.4,M*5C
2016-08-27 10:21	$GPGSA,A,3,22,23,1,14,31,32,11,3,26,,,,2.0,1.1,1.6*36
2016-08-27 10:21	$GPRMC,002110.00,A,3645.8330,S,14419.2894,E,0.0,299.3,270816,10.9,E,A*1B
2016-08-27 10:21	$WIMDA,30.2151,I,1.0232,B,13.8,C,,,46.2,,2.4,C,5.1,T,354.2,M,1.0,N,0.5,M*53
2016-08-27 10:21	$HCHDG,293.6,0.0,E,10.9,E*74
2016-08-27 10:21	$WIMWV,47.1,R,0.7,N,A*16
2016-08-27 10:21	$WIMWD,347.3,T,336.4,M,0.7,N,0.4,M*58
2016-08-27 10:21	$GPGSA,A,3,22,23,1,14,31,32,11,3,26,,,,2.0,1.1,1.6*36
2016-08-27 10:21	$GPRMC,002111.00,A,3645.8330,S,14419.2892,E,0.0,81.9,270816,10.9,E,A*2D
2016-08-27 10:21	$WIMDA,30.2151,I,1.0232,B,13.8,C,,,46.2,,2.4,C,338.7,T,327.8,M,0.8,N,0.4,M*5E
2016-08-27 10:21	$HCHDG,293.6,0.0,E,10.9,E*74
2016-08-27 10:21	$WIMWV,36.9,R,0.8,N,A*17
2016-08-27 10:21	$WIMWD,342.5,T,331.6,M,0.7,N,0.4,M*5E
2016-08-27 10:21	$GPGSA,A,3,22,23,1,14,31,32,11,3,26,,,,2.0,1.1,1.6*36
2016-08-27 10:21	$GPRMC,002112.00,A,3645.8330,S,14419.2890,E,0.0,149.2,270816,10.9,E,A*12
2016-08-27 10:21	$WIMDA,30.2151,I,1.0232,B,13.8,C,,,46.2,,2.4,C,353.8,T,342.9,M,0.4,N,0.2,M*54
2016-08-27 10:21	$HCHDG,293.6,0.0,E,10.9,E*74
2016-08-27 10:21	$WIMWV,34.8,R,0.6,N,A*1A
2016-08-27 10:21	$WIMWD,342.0,T,331.1,M,0.5,N,0.3,M*59
2016-08-27 10:21	$GPGSA,A,3,22,23,1,14,31,32,11,3,26,,,,2.0,1.1,1.6*36
2016-08-27 10:21	$GPRMC,002113.00,A,3645.8329,S,14419.2889,E,0.0,63.7,270816,10.9,E,A*2F
2016-08-27 10:21	$WIMDA,30.2151,I,1.0232,B,13.8,C,,,46.3,,2.4,C,339.0,T,328.1,M,0.6,N,0.3,M*56
2016-08-27 10:21	$HCHDG,293.6,0.0,E,10.9,E*74
2016-08-27 10:21	$WIMWV,32.7,R,0.5,N,A*10
2016-08-27 10:21	$WIMWD,334.2,T,323.3,M,0.5,N,0.3,M*5B
2016-08-27 10:21	$GPGSA,A,3,22,23,1,14,31,32,11,3,26,,,,2.0,1.1,1.6*36
2016-08-27 10:21	$GPRMC,002114.00,A,3645.8329,S,14419.2886,E,0.0,301.2,270816,10.9,E,A*15
2016-08-27 10:21	$WIMDA,30.2121,I,1.0231,B,13.8,C,,,46.3,,2.4,C,359.7,T,348.8,M,0.7,N,0.4,M*5A
2016-08-27 10:21	$HCHDG,293.5,0.0,E,10.9,E*77
2016-08-27 10:21	$WIMWV,68.8,R,0.6,N,A*13
2016-08-27 10:21	$WIMWD,10.5,T,359.6,M,0.7,N,0.4,M*64
2016-08-27 10:21	$GPGSA,A,3,22,23,1,14,31,32,11,3,26,,,,2.0,1.1,1.6*36
2016-08-27 10:21	$GPRMC,002115.00,A,3645.8328,S,14419.2883,E,0.0,344.3,270816,10.9,E,A*10
2016-08-27 10:21	$WIMDA,30.2121,I,1.0231,B,13.8,C,,,46.3,,2.4,C,8.2,T,357.3,M,0.9,N,0.5,M*52
2016-08-27 10:21	$HCHDG,293.6,0.0,E,10.9,E*74
2016-08-27 10:21	$WIMWV,50.7,R,0.9,N,A*18
2016-08-27 10:21	$WIMWD,353.3,T,342.4,M,0.9,N,0.5,M*51
2016-08-27 10:21	$GPGSA,A,3,22,23,1,14,31,32,11,3,26,,,,2.0,1.1,1.6*36
2016-08-27 10:21	$GPRMC,002116.00,A,3645.8329,S,14419.2881,E,0.0,205.8,270816,10.9,E,A*1F
2016-08-27 10:21	$WIMDA,30.2121,I,1.0231,B,13.8,C,,,46.3,,2.4,C,20.8,T,9.9,M,1.0,N,0.5,M*68
2016-08-27 10:21	$HCHDG,293.6,0.0,E,10.9,E*74
2016-08-27 10:21	$WIMWV,77.7,R,1.1,N,A*14
2016-08-27 10:21	$WIMWD,22.2,T,11.3,M,1.0,N,0.5,M*5F
2016-08-27 10:21	$GPGSA,A,3,22,23,1,14,31,32,11,3,26,,,,2.0,1.1,1.6*36
2016-08-27 10:21	$GPRMC,002117.00,A,3645.8329,S,14419.2880,E,0.0,307.1,270816,10.9,E,A*15
2016-08-27 10:21	$WIMDA,30.2121,I,1.0231,B,13.8,C,,,46.3,,2.4,C,17.1,T,6.2,M,0.9,N,0.5,M*69
2016-08-27 10:21	$HCHDG,293.6,0.0,E,10.9,E*74
2016-08-27 10:21	$WIMWV,78.2,R,0.8,N,A*16
2016-08-27 10:21	$WIMWD,15.4,T,4.5,M,0.8,N,0.4,M*67
2016-08-27 10:21	$GPGSA,A,3,22,23,1,14,31,32,11,3,26,,,,2.0,1.1,1.6*36
2016-08-27 10:21	$GPRMC,002118.00,A,3645.8330,S,14419.2880,E,0.0,251.2,270816,10.9,E,A*13
2016-08-27 10:21	$WIMDA,30.2121,I,1.0231,B,13.8,C,,,46.3,,2.4,C,19.5,T,8.6,M,0.9,N,0.5,M*69
2016-08-27 10:21	$HCHDG,293.6,0.0,E,10.9,E*74
2016-08-27 10:21	$WIMWV,92.3,R,0.9,N,A*12
2016-08-27 10:21	$WIMWD,36.7,T,25.8,M,0.9,N,0.5,M*5B
2016-08-27 10:21	$GPGSA,A,3,22,23,1,14,31,32,11,3,26,,,,2.0,1.1,1.6*36
2016-08-27 10:21	$GPRMC,002119.00,A,3645.8331,S,14419.2880,E,0.0,206.3,270816,10.9,E,A*10
2016-08-27 10:21	$WIMDA,30.2121,I,1.0231,B,13.8,C,,,46.3,,2.4,C,7.9,T,357.0,M,0.6,N,0.3,M*5C
2016-08-27 10:21	$HCHDG,293.5,0.0,E,10.9,E*77
2016-08-27 10:21	$WIMWV,67.4,R,0.7,N,A*11
2016-08-27 10:21	$WIMWD,11.7,T,0.8,M,0.5,N,0.3,M*63
2016-08-27 10:21	$GPGSA,A,3,22,23,1,14,31,32,11,3,26,,,,2.0,1.1,1.6*36
2016-08-27 10:21	$GPRMC,002120.00,A,3645.8333,S,14419.2881,E,0.0,68.8,270816,10.9,E,A*28
2016-08-27 10:21	$WIMDA,30.2092,I,1.0230,B,13.8,C,,,46.4,,2.5,C,355.1,T,344.2,M,0.7,N,0.4,M*58
2016-08-27 10:21	$HCHDG,293.5,0.0,E,10.9,E*77
2016-08-27 10:21	$WIMWV,58.9,R,0.7,N,A*10
2016-08-27 10:21	$WIMWD,7.7,T,356.8,M,0.5,N,0.3,M*54
2016-08-27 10:21	$GPGSA,A,3,22,23,1,14,31,32,11,3,26,,,,2.0,1.1,1.6*36
2016-08-27 10:21	$GPRMC,002121.00,A,3645.8334,S,14419.2881,E,0.0,51.2,270816,10.9,E,A*2E
2016-08-27 10:21	$WIMDA,30.2121,I,1.0231,B,13.8,C,,,46.4,,2.5,C,1.7,T,350.8,M,0.9,N,0.5,M*54
2016-08-27 10:21	$HCHDG,293.6,0.0,E,10.9,E*74
2016-08-27 10:21	$WIMWV,46.4,R,0.8,N,A*1D
2016-08-27 10:21	$WIMWD,354.1,T,343.2,M,0.8,N,0.4,M*53
2016-08-27 10:21	$GPGSA,A,3,22,23,1,14,31,32,11,3,26,,,,2.0,1.1,1.6*36
2016-08-27 10:21	$GPRMC,002122.00,A,3645.8335,S,14419.2882,E,0.0,24.1,270816,10.9,E,A*2E
2016-08-27 10:21	$WIMDA,30.2121,I,1.0231,B,13.8,C,,,46.4,,2.5,C,0.9,T,350.0,M,0.6,N,0.3,M*5A
2016-08-27 10:21	$HCHDG,293.5,0.0,E,10.9,E*77
2016-08-27 10:21	$WIMWV,61.7,R,0.8,N,A*1B
2016-08-27 10:21	$WIMWD,3.0,T,352.1,M,0.8,N,0.4,M*50
2016-08-27 10:21	$GPGSA,A,3,22,23,1,14,31,32,11,3,26,,,,2.0,1.1,1.6*36
2016-08-27 10:21	$GPRMC,002123.00,A,3645.8336,S,14419.2882,E,0.0,14.8,270816,10.9,E,A*26
2016-08-27 10:21	$WIMDA,30.2092,I,1.0230,B,13.8,C,,,46.4,,2.5,C,0.9,T,350.0,M,0.8,N,0.4,M*5B
2016-08-27 10:21	$HCHDG,293.6,0.0,E,10.9,E*74
2016-08-27 10:21	$WIMWV,48.8,R,0.6,N,A*11
2016-08-27 10:21	$WIMWD,351.7,T,340.8,M,0.6,N,0.3,M*50
2016-08-27 10:21	$GPGSA,A,3,22,23,1,14,31,32,11,3,26,,,,2.0,1.1,1.6*36
2016-08-27 10:21	$GPRMC,002124.00,A,3645.8336,S,14419.2883,E,0.0,334.0,270816,10.9,E,A*19
2016-08-27 10:21	$WIMDA,30.2092,I,1.0230,B,13.8,C,,,46.4,,2.5,C,349.6,T,338.7,M,0.4,N,0.2,M*59
2016-08-27 10:21	$HCHDG,293.6,0.0,E,10.9,E*74
2016-08-27 10:21	$WIMWV,41.6,R,0.5,N,A*15
2016-08-27 10:21	$WIMWD,348.3,T,337.4,M,0.5,N,0.3,M*53
2016-08-27 10:21	$GPGSA,A,3,22,23,1,14,31,32,11,3,26,,,,2.0,1.1,1.6*36
2016-08-27 10:21	$GPRMC,002125.00,A,3645.8336,S,14419.2884,E,0.0,155.6,270816,10.9,E,A*1C
2016-08-27 10:21	$WIMDA,30.2121,I,1.0231,B,13.8,C,,,46.5,,2.5,C,36.7,T,25.8,M,0.2,N,0.1,M*5F
2016-08-27 10:21	$HCHDG,293.6,0.0,E,10.9,E*74
2016-08-27 10:21	$WIMWV,92.3,R,0.2,N,A*19
2016-08-27 10:21	$WIMWD,36.6,T,25.7,M,0.1,N,0.1,M*59
2016-08-27 10:21	$GPGSA,A,3,22,23,1,14,31,32,11,3,26,,,,2.0,1.1,1.6*36
2016-08-27 10:21	$GPRMC,002126.00,A,3645.8337,S,14419.2886,E,0.0,12.0,270816,10.9,E,A*28
2016-08-27 10:21	$WIMDA,30.2121,I,1.0231,B,13.9,C,,,46.5,,2.6,C,36.7,T,25.8,M,0.3,N,0.2,M*5F
2016-08-27 10:21	$HCHDG,293.6,0.0,E,10.9,E*74
2016-08-27 10:21	$WIMWV,92.3,R,0.3,N,A*18
2016-08-27 10:21	$WIMWD,36.7,T,25.8,M,0.3,N,0.2,M*56
2016-08-27 10:21	$GPGSA,A,3,22,23,1,14,31,32,11,3,26,,,,2.0,1.1,1.6*36
2016-08-27 10:21	$GPRMC,002127.00,A,3645.8336,S,14419.2889,E,0.0,353.2,270816,10.9,E,A*13
2016-08-27 10:21	$WIMDA,30.2151,I,1.0232,B,13.9,C,,,46.5,,2.6,C,36.6,T,25.7,M,0.3,N,0.2,M*55
2016-08-27 10:21	$HCHDG,293.6,0.0,E,10.9,E*74
2016-08-27 10:21	$WIMWV,121.4,R,0.6,N,A*23
2016-08-27 10:21	$WIMWD,67.8,T,56.9,M,0.6,N,0.3,M*5C
2016-08-27 10:21	$GPGSA,A,3,22,23,1,14,31,32,11,3,26,,,,2.0,1.1,1.6*36
2016-08-27 10:21	$GPRMC,002128.00,A,3645.8336,S,14419.2892,E,0.0,173.6,270816,10.9,E,A*12
2016-08-27 10:21	$WIMDA,30.2151,I,1.0232,B,13.9,C,,,46.5,,2.6,C,65.6,T,54.7,M,0.5,N,0.3,M*52
2016-08-27 10:21	$HCHDG,293.6,0.0,E,10.9,E*74
2016-08-27 10:21	$WIMWV,132.3,R,0.6,N,A*26
2016-08-27 10:21	$WIMWD,75.8,T,64.9,M,0.6,N,0.3,M*5E
2016-08-27 10:21	$GPGSA,A,3,22,23,1,14,31,32,11,3,26,,,,2.0,1.1,1.6*36
2016-08-27 10:21	$GPRMC,002129.00,A,3645.8335,S,14419.2893,E,0.0,11.8,270816,10.9,E,A*2A
2016-08-27 10:21	$WIMDA,30.2210,I,1.0234,B,13.9,C,,,46.5,,2.6,C,0.0,T,349.1,M,0.0,N,0.0,M*58
2016-08-27 10:21	$HCHDG,293.6,0.0,E,10.9,E*74
2016-08-27 10:21	$WIMWV,1.6,R,0.0,N,A*24
2016-08-27 10:21	$WIMWD,126.2,T,115.3,M,0.2,N,0.1,M*58
2016-08-27 10:21	$GPGSA,A,3,22,23,1,14,31,32,11,3,26,,,,2.0,1.1,1.6*36
2016-08-27 10:21	$GPRMC,002130.00,A,3645.8334,S,14419.2894,E,0.0,17.4,270816,10.9,E,A*2E
2016-08-27 10:21	$WIMDA,30.2210,I,1.0234,B,13.9,C,,,46.5,,2.6,C,126.1,T,115.2,M,0.2,N,0.1,M*57
2016-08-27 10:21	$HCHDG,293.6,0.0,E,10.9,E*74
2016-08-27 10:21	$WIMWV,181.7,R,0.3,N,A*2F
2016-08-27 10:21	$WIMWD,126.2,T,115.3,M,0.1,N,0.1,M*5B
2016-08-27 10:21	$GPGSA,A,3,22,23,1,14,31,32,11,3,26,,,,2.0,1.1,1.6*36
2016-08-27 10:21	$GPRMC,002131.00,A,3645.8333,S,14419.2894,E,0.0,62.4,270816,10.9,E,A*2A
2016-08-27 10:21	$WIMDA,30.2210,I,1.0234,B,13.9,C,,,46.6,,2.6,C,0.0,T,349.1,M,0.0,N,0.0,M*5B
2016-08-27 10:21	$HCHDG,293.6,0.0,E,10.9,E*74
2016-08-27 10:21	$WIMWV,1.6,R,0.0,N,A*24
2016-08-27 10:21	$WIMWD,0.0,T,349.1,M,0.0,N,0.0,M*55
2016-08-27 10:21	$GPGSA,A,3,22,23,1,14,31,32,11,3,26,,,,2.0,1.1,1.6*36
2016-08-27 10:21	$GPRMC,002132.00,A,3645.8333,S,14419.2894,E,0.0,333.5,270816,10.9,E,A*1F
2016-08-27 10:21	$WIMDA,30.2239,I,1.0235,B,13.9,C,,,46.5,,2.6,C,215.8,T,204.9,M,0.2,N,0.1,M*5F
2016-08-27 10:21	$HCHDG,293.5,0.0,E,10.9,E*77
2016-08-27 10:21	$WIMWV,271.3,R,0.2,N,A*26
2016-08-27 10:21	$WIMWD,215.7,T,204.8,M,0.2,N,0.1,M*56
2016-08-27 10:21	$GPGSA,A,3,22,23,1,14,31,32,11,3,26,,,,2.0,1.1,1.6*36
2016-08-27 10:21	$GPRMC,002133.00,A,3645.8333,S,14419.2893,E,0.0,174.5,270816,10.9,E,A*18
2016-08-27 10:21	$WIMDA,30.2298,I,1.0237,B,13.9,C,,,46.5,,2.6,C,165.2,T,154.3,M,0.3,N,0.2,M*56
2016-08-27 10:21	$HCHDG,293.6,0.0,E,10.9,E*74
2016-08-27 10:21	$WIMWV,236.9,R,0.4,N,A*29
2016-08-27 10:21	$WIMWD,184.6,T,173.7,M,0.4,N,0.2,M*55
2016-08-27 10:21	$GPGSA,A,3,22,23,1,14,31,32,11,3,26,,,,2.0,1.1,1.6*36
2016-08-27 10:21	$GPRMC,002134.00,A,3645.8334,S,14419.2892,E,0.0,123.4,270816,10.9,E,A*1A
2016-08-27 10:21	$WIMDA,30.2269,I,1.0236,B,13.9,C,,,46.6,,2.6,C,175.0,T,164.1,M,0.5,N,0.3,M*5F
2016-08-27 10:21	$HCHDG,293.6,0.0,E,10.9,E*74
2016-08-27 10:21	$WIMWV,212.3,R,0.5,N,A*24
2016-08-27 10:21	$WIMWD,166.7,T,155.8,M,0.5,N,0.3,M*53
2016-08-27 10:21	$GPGSA,A,3,22,23,1,14,31,32,11,3,26,,,,2.0,1.1,1.6*36
2016-08-27 10:21	$GPRMC,002135.00,A,3645.8333,S,14419.2891,E,0.0,4.6,270816,10.9,E,A*19
2016-08-27 10:21	$WIMDA,30.2298,I,1.0237,B,13.9,C,,,46.6,,2.6,C,83.7,T,72.8,M,0.7,N,0.4,M*55
2016-08-27 10:21	$HCHDG,293.6,0.0,E,10.9,E*74
2016-08-27 10:21	$WIMWV,132.9,R,0.8,N,A*22
2016-08-27 10:21	$WIMWD,74.9,T,64.0,M,0.9,N,0.5,M*5E
2016-08-27 10:21	$GPGSA,A,3,22,23,1,14,31,32,11,3,26,,,,2.0,1.1,1.6*36
2016-08-27 10:21	$GPRMC,002136.00,A,3645.8332,S,14419.2891,E,0.0,348.7,270816,10.9,E,A*11
2016-08-27 10:21	$WIMDA,30.2298,I,1.0237,B,13.9,C,,,46.6,,2.6,C,64.5,T,53.6,M,1.0,N,0.5,M*54
2016-08-27 10:21	$HCHDG,293.6,0.0,E,10.9,E*74
2016-08-27 10:21	$WIMWV,121.1,R,1.1,N,A*20
2016-08-27 10:21	$WIMWD,62.7,T,51.8,M,1.0,N,0.5,M*51
2016-08-27 10:21	$GPGSA,A,3,22,23,1,14,31,32,11,3,26,,,,2.0,1.1,1.6*36
2016-08-27 10:21	$GPRMC,002137.00,A,3645.8331,S,14419.2892,E,0.0,328.9,270816,10.9,E,A*18
2016-08-27 10:21	$WIMDA,30.2328,I,1.0238,B,13.9,C,,,46.6,,2.6,C,57.8,T,46.9,M,0.8,N,0.4,M*5F
2016-08-27 10:21	$HCHDG,293.6,0.0,E,10.9,E*74
2016-08-27 10:21	$WIMWV,112.4,R,0.9,N,A*2C
2016-08-27 10:21	$WIMWD,59.4,T,48.5,M,0.9,N,0.5,M*57
2016-08-27 10:21	$GPGSA,A,3,22,23,1,14,31,32,11,3,26,,,,2.0,1.1,1.6*36
2016-08-27 10:21	$GPRMC,002138.00,A,3645.8331,S,14419.2893,E,0.0,47.4,270816,10.9,E,A*21
2016-08-27 10:21	$WIMDA,30.2358,I,1.0239,B,13.9,C,,,46.6,,2.6,C,68.7,T,57.8,M,1.0,N,0.5,M*53
2016-08-27 10:21	$HCHDG,293.6,0.0,E,10.9,E*74
2016-08-27 10:21	$WIMWV,143.5,R,0.9,N,A*29
2016-08-27 10:21	$WIMWD,95.9,T,85.0,M,0.9,N,0.5,M*5E
2016-08-27 10:21	$GPGSA,A,3,22,23,1,14,31,32,11,3,26,,,,2.0,1.1,1.6*36
2016-08-27 10:21	$GPRMC,002139.00,A,3645.8331,S,14419.2893,E,0.0,131.6,270816,10.9,E,A*12
2016-08-27 10:21	$WIMDA,30.2358,I,1.0239,B,13.9,C,,,46.6,,2.6,C,83.3,T,72.4,M,0.7,N,0.4,M*5E
2016-08-27 10:21	$HCHDG,293.6,0.0,E,10.9,E*74
2016-08-27 10:21	$WIMWV,130.4,R,0.6,N,A*23
2016-08-27 10:21	$WIMWD,70.4,T,59.5,M,0.6,N,0.3,M*55
2016-08-27 10:21	$GPGSA,A,3,22,23,1,14,31,32,11,3,26,,,,2.0,1.1,1.6*36
2016-08-27 10:21	$GPRMC,002140.00,A,3645.8331,S,14419.2894,E,0.0,4.8,270816,10.9,E,A*12
2016-08-27 10:21	$WIMDA,30.2328,I,1.0238,B,13.9,C,,,46.6,,2.6,C,36.7,T,25.8,M,0.4,N,0.2,M*59
2016-08-27 10:21	$HCHDG,293.6,0.0,E,10.9,E*74
2016-08-27 10:21	$WIMWV,54.3,R,0.5,N,A*14
2016-08-27 10:21	$WIMWD,3.1,T,352.2,M,0.3,N,0.2,M*5F
2016-08-27 10:21	$GPGSA,A,3,22,23,1,14,31,32,11,3,26,,,,2.0,1.1,1.6*36
2016-08-27 10:21	$GPRMC,002141.00,A,3645.8329,S,14419.2895,E,0.0,144.2,270816,10.9,E,A*14
2016-08-27 10:21	$WIMDA,30.2328,I,1.0238,B,13.9,C,,,46.6,,2.6,C,215.8,T,204.9,M,0.2,N,0.1,M*50
2016-08-27 10:21	$HCHDG,293.6,0.0,E,10.9,E*74
2016-08-27 10:21	$WIMWV,233.1,R,0.3,N,A*23
2016-08-27 10:21	$WIMWD,178.0,T,167.1,M,0.4,N,0.2,M*53
2016-08-27 10:21	$GPGSA,A,3,22,23,1,14,31,32,11,3,26,,,,2.0,1.1,1.6*36
2016-08-27 10:21	$GPRMC,002142.00,A,3645.8328,S,14419.2897,E,0.0,129.1,270816,10.9,E,A*1C
2016-08-27 10:21	$WIMDA,30.2328,I,1.0238,B,13.9,C,,,46.6,,2.6,C,95.8,T,84.9,M,0.7,N,0.4,M*50
2016-08-27 10:21	$HCHDG,293.6,0.0,E,10.9,E*74
2016-08-27 10:21	$WIMWV,157.2,R,0.8,N,A*2A
2016-08-27 10:21	$WIMWD,103.2,T,92.3,M,0.8,N,0.4,M*6E
2016-08-27 10:21	$GPGSA,A,3,22,23,1,14,31,32,11,3,26,,,,2.0,1.1,1.6*36
2016-08-27 10:21	$GPRMC,002143.00,A,3645.8327,S,14419.2899,E,0.0,61.2,270816,10.9,E,A*22
2016-08-27 10:21	$WIMDA,30.2358,I,1.0239,B,13.9,C,,,46.6,,2.6,C,69.9,T,59.0,M,1.0,N,0.5,M*5A
2016-08-27 10:21	$HCHDG,293.6,0.0,E,10.9,E*74
2016-08-27 10:21	$WIMWV,117.9,R,0.6,N,A*2B
2016-08-27 10:21	$WIMWD,68.8,T,57.9,M,0.6,N,0.3,M*52
2016-08-27 10:21	$GPGSA,A,3,22,23,1,14,31,32,11,3,26,,,,2.0,1.1,1.6*36
2016-08-27 10:21	$GPRMC,002144.00,A,3645.8326,S,14419.2900,E,0.0,139.1,270816,10.9,E,A*1A
2016-08-27 10:21	$WIMDA,30.2328,I,1.0238,B,13.9,C,,,46.6,,2.6,C,349.6,T,338.7,M,0.4,N,0.2,M*53
2016-08-27 10:21	$HCHDG,293.5,0.0,E,10.9,E*77
2016-08-27 10:21	$WIMWV,31.4,R,0.4,N,A*11
2016-08-27 10:21	$WIMWD,343.4,T,332.5,M,0.4,N,0.2,M*5B
2016-08-27 10:21	$GPGSA,A,3,22,23,1,14,31,32,11,3,26,,,,2.0,1.1,1.6*36
2016-08-27 10:21	$GPRMC,002145.00,A,3645.8326,S,14419.2900,E,0.0,344.9,270816,10.9,E,A*1B
2016-08-27 10:21	$WIMDA,30.2298,I,1.0237,B,13.9,C,,,46.6,,2.6,C,359.1,T,348.2,M,0.4,N,0.2,M*52
2016-08-27 10:21	$HCHDG,293.6,0.0,E,10.9,E*74
2016-08-27 10:21	$WIMWV,39.9,R,0.4,N,A*14
2016-08-27 10:21	$WIMWD,356.7,T,345.8,M,0.4,N,0.2,M*51
2016-08-27 10:21	$GPGSA,A,3,22,23,1,14,31,32,11,3,26,,,,2.0,1.1,1.6*36
2016-08-27 10:21	$GPRMC,002146.00,A,3645.8326,S,14419.2900,E,0.0,16.0,270816,10.9,E,A*25
2016-08-27 10:21	$WIMDA,30.2298,I,1.0237,B,13.9,C,,,46.7,,2.6,C,306.0,T,295.1,M,0.4,N,0.2,M*5A
2016-08-27 10:21	$HCHDG,293.5,0.0,E,10.9,E*77
2016-08-27 10:21	$WIMWV,1.6,R,0.3,N,A*27
2016-08-27 10:21	$WIMWD,306.1,T,295.2,M,0.3,N,0.2,M*53
2016-08-27 10:21	$GPGSA,A,3,22,23,1,14,31,32,11,3,26,,,,2.0,1.1,1.6*36
2016-08-27 10:21	$GPRMC,002147.00,A,3645.8325,S,14419.2899,E,0.0,30.4,270816,10.9,E,A*26
2016-08-27 10:21	$WIMDA,30.2269,I,1.0236,B,13.9,C,,,46.7,,2.6,C,306.1,T,295.2,M,0.3,N,0.2,M*50
2016-08-27 10:21	$HCHDG,293.6,0.0,E,10.9,E*74
2016-08-27 10:21	$WIMWV,1.6,R,0.2,N,A*26
2016-08-27 10:21	$WIMWD,306.1,T,295.2,M,0.3,N,0.2,M*53
2016-08-27 10:21	$GPGSA,A,3,22,23,1,14,31,32,11,3,26,,,,2.0,1.1,1.6*36
2016-08-27 10:21	$GPRMC,002148.00,A,3645.8325,S,14419.2897,E,0.0,307.9,270816,10.9,E,A*1D
2016-08-27 10:21	$WIMDA,30.2298,I,1.0237,B,13.9,C,,,46.7,,2.6,C,215.7,T,204.8,M,0.3,N,0.2,M*58
2016-08-27 10:21	$HCHDG,293.5,0.0,E,10.9,E*77
2016-08-27 10:21	$WIMWV,271.3,R,0.3,N,A*27
2016-08-27 10:21	$WIMWD,215.7,T,204.8,M,0.3,N,0.2,M*54
2016-08-27 10:21	$GPGSA,A,3,22,23,1,14,31,32,11,3,26,,,,2.0,1.1,1.6*36
2016-08-27 10:21	$GPRMC,002149.00,A,3645.8325,S,14419.2896,E,0.0,356.3,270816,10.9,E,A*13
2016-08-27 10:21	$WIMDA,30.2269,I,1.0236,B,13.9,C,,,46.8,,2.7,C,186.3,T,175.4,M,0.5,N,0.3,M*5A
2016-08-27 10:21	$HCHDG,293.5,0.0,E,10.9,E*77
2016-08-27 10:21	$WIMWV,226.4,R,0.5,N,A*24
2016-08-27 10:21	$WIMWD,172.3,T,161.4,M,0.4,N,0.2,M*59
2016-08-27 10:21	$GPGSA,A,3,22,23,1,14,31,32,11,3,26,,,,2.0,1.1,1.6*36
2016-08-27 10:21	$GPRMC,002150.00,A,3645.8324,S,14419.2897,E,0.0,81.4,270816,10.9,E,A*25
2016-08-27 10:21	$WIMDA,30.2269,I,1.0236,B,13.9,C,,,46.8,,2.7,C,164.7,T,153.8,M,0.8,N,0.4,M*50
2016-08-27 10:21	$HCHDG,293.6,0.0,E,10.9,E*74
2016-08-27 10:21	$WIMWV,212.1,R,1.0,N,A*22
2016-08-27 10:21	$WIMWD,154.2,T,143.3,M,0.9,N,0.5,M*51
2016-08-27 10:21	$GPGSA,A,3,22,23,1,14,31,32,11,3,26,,,,2.0,1.1,1.6*36
2016-08-27 10:21	$GPRMC,002151.00,A,3645.8323,S,14419.2896,E,0.0,5.4,270816,10.9,E,A*1E
2016-08-27 10:21	$WIMDA,30.2239,I,1.0235,B,13.9,C,,,46.8,,2.7,C,148.6,T,137.7,M,1.0,N,0.5,M*5C
2016-08-27 10:21	$HCHDG,293.5,0.0,E,10.9,E*77
2016-08-27 10:21	$WIMWV,211.3,R,1.1,N,A*22
2016-08-27 10:21	$WIMWD,153.5,T,142.6,M,1.1,N,0.6,M*5F
2016-08-27 10:21	$GPGSA,A,3,22,23,1,14,31,32,11,3,26,,,,2.0,1.1,1.6*36
2016-08-27 10:21	$GPRMC,002152.00,A,3645.8322,S,14419.2895,E,0.0,15.3,270816,10.9,E,A*29
2016-08-27 10:21	$WIMDA,30.2269,I,1.0236,B,13.9,C,,,46.9,,2.7,C,169.4,T,158.5,M,1.0,N,0.5,M*51
2016-08-27 10:21	$HCHDG,293.5,0.0,E,10.9,E*77
2016-08-27 10:21	$WIMWV,226.4,R,1.1,N,A*21
2016-08-27 10:21	$WIMWD,170.9,T,160.0,M,1.1,N,0.6,M*54
2016-08-27 10:21	$GPGSA,A,3,22,23,1,14,31,32,11,3,26,,,,2.0,1.1,1.6*36
2016-08-27 10:21	$GPRMC,002153.00,A,3645.8321,S,14419.2894,E,0.0,313.2,270816,10.9,E,A*1E
2016-08-27 10:21	$WIMDA,30.2239,I,1.0235,B,13.9,C,,,46.9,,2.7,C,172.0,T,161.1,M,0.9,N,0.5,M*5F
2016-08-27 10:21	$HCHDG,293.5,0.0,E,10.9,E*77
2016-08-27 10:21	$WIMWV,236.6,R,1.0,N,A*23
2016-08-27 10:21	$WIMWD,179.0,T,168.1,M,1.0,N,0.5,M*5F
2016-08-27 10:21	$GPGSA,A,3,22,23,1,14,31,32,11,3,26,,,,2.0,1.1,1.6*36
2016-08-27 10:21	$GPRMC,002154.00,A,3645.8321,S,14419.2892,E,0.0,115.1,270816,10.9,E,A*18
2016-08-27 10:21	$WIMDA,30.2210,I,1.0234,B,13.9,C,,,47.0,,2.7,C,165.0,T,154.1,M,0.9,N,0.5,M*5D
2016-08-27 10:21	$HCHDG,293.5,0.0,E,10.9,E*77
2016-08-27 10:21	$WIMWV,225.7,R,0.7,N,A*26
2016-08-27 10:21	$WIMWD,169.1,T,158.2,M,0.7,N,0.4,M*58
2016-08-27 10:21	$GPGSA,A,3,22,23,1,14,31,32,11,3,26,,,,2.0,1.1,1.6*36
2016-08-27 10:21	$GPRMC,002155.00,A,3645.8320,S,14419.2889,E,0.0,195.1,270816,10.9,E,A*1A
2016-08-27 10:21	$WIMDA,30.2269,I,1.0236,B,13.9,C,,,47.0,,2.7,C,168.2,T,157.3,M,0.6,N,0.3,M*56
2016-08-27 10:21	$HCHDG,293.5,0.0,E,10.9,E*77
2016-08-27 10:21	$WIMWV,220.3,R,0.6,N,A*26
2016-08-27 10:21	$WIMWD,126.1,T,115.2,M,0.4,N,0.2,M*5F
2016-08-27 10:21	$GPGSA,A,3,22,23,1,14,31,32,11,3,26,,,,2.0,1.1,1.6*36
2016-08-27 10:21	$GPRMC,002156.00,A,3645.8321,S,14419.2887,E,0.0,95.6,270816,10.9,E,A*20
2016-08-27 10:21	$WIMDA,30.2210,I,1.0234,B,13.9,C,,,47.0,,2.7,C,57.2,T,46.3,M,1.0,N,0.5,M*57
2016-08-27 10:21	$HCHDG,293.6,0.0,E,10.9,E*74
2016-08-27 10:21	$WIMWV,110.9,R,1.1,N,A*2A
2016-08-27 10:21	$WIMWD,55.6,T,44.7,M,1.0,N,0.5,M*5F
2016-08-27 10:21	$GPGSA,A,3,22,23,1,14,31,32,11,3,26,,,,2.0,1.1,1.6*36
2016-08-27 10:21	$GPRMC,002157.00,A,3645.8322,S,14419.2886,E,0.0,328.0,270816,10.9,E,A*10
2016-08-27 10:21	$WIMDA,30.2210,I,1.0234,B,13.9,C,,,47.0,,2.7,C,46.9,T,36.0,M,1.0,N,0.5,M*58
2016-08-27 10:21	$HCHDG,293.6,0.0,E,10.9,E*74
2016-08-27 10:21	$WIMWV,114.1,R,0.9,N,A*2F
2016-08-27 10:21	$WIMWD,64.0,T,53.1,M,0.8,N,0.4,M*53
2016-08-27 10:22	$GPGSA,A,3,22,23,1,14,31,32,11,3,26,,,,2.0,1.1,1.6*36
2016-08-27 10:22	$GPRMC,002158.00,A,3645.8323,S,14419.2886,E,0.0,317.7,270816,10.9,E,A*15
2016-08-27 10:22	$WIMDA,30.2180,I,1.0233,B,13.9,C,,,47.0,,2.7,C,112.0,T,101.1,M,1.0,N,0.5,M*58
2016-08-27 10:22	$HCHDG,293.6,0.0,E,10.9,E*74
2016-08-27 10:22	$WIMWV,170.4,R,1.1,N,A*21
2016-08-27 10:22	$WIMWD,116.0,T,105.1,M,1.2,N,0.6,M*5C
2016-08-27 10:22	$GPGSA,A,3,22,23,1,14,31,32,11,3,26,,,,2.0,1.1,1.6*36
2016-08-27 10:22	$GPRMC,002159.00,A,3645.8323,S,14419.2887,E,0.0,32.7,270816,10.9,E,A*21
2016-08-27 10:22	$WIMDA,30.2210,I,1.0234,B,13.9,C,,,46.9,,2.7,C,126.1,T,115.2,M,1.2,N,0.6,M*5C
2016-08-27 10:22	$HCHDG,293.6,0.0,E,10.9,E*74
2016-08-27 10:22	$WIMWV,194.9,R,1.0,N,A*27
2016-08-27 10:22	$WIMWD,140.1,T,129.2,M,0.8,N,0.4,M*5A
2016-08-27 10:22	$GPGSA,A,3,22,23,1,14,31,32,11,3,26,,,,2.0,1.1,1.6*36
2016-08-27 10:22	$GPRMC,002200.00,A,3645.8324,S,14419.2888,E,0.0,46.9,270816,10.9,E,A*2B
2016-08-27 10:22	$WIMDA,30.2210,I,1.0234,B,13.9,C,,,46.9,,2.7,C,153.4,T,142.5,M,0.6,N,0.3,M*5E
2016-08-27 10:22	$HCHDG,293.6,0.0,E,10.9,E*74
2016-08-27 10:22	$WIMWV,213.9,R,0.9,N,A*23
2016-08-27 10:22	$WIMWD,161.7,T,150.8,M,0.9,N,0.5,M*5B
2016-08-27 10:22	$GPGSA,A,3,22,23,1,14,31,32,11,3,26,,,,2.0,1.1,1.6*36
2016-08-27 10:22	$GPRMC,002201.00,A,3645.8324,S,14419.2889,E,0.0,320.3,270816,10.9,E,A*12
2016-08-27 10:22	$WIMDA,30.2210,I,1.0234,B,13.9,C,,,46.8,,2.7,C,162.5,T,151.6,M,0.8,N,0.4,M*54
2016-08-27 10:22	$HCHDG,293.5,0.0,E,10.9,E*77
2016-08-27 10:22	$WIMWV,200.7,R,0.6,N,A*20
2016-08-27 10:22	$WIMWD,150.2,T,139.3,M,0.6,N,0.3,M*51
2016-08-27 10:22	$GPGSA,A,3,22,23,1,14,31,32,11,3,26,,,,2.0,1.1,1.6*36
2016-08-27 10:22	$GPRMC,002202.00,A,3645.8323,S,14419.2891,E,0.0,17.9,270816,10.9,E,A*22
2016-08-27 10:22	$WIMDA,30.2210,I,1.0234,B,13.9,C,,,46.8,,2.7,C,126.2,T,115.3,M,0.2,N,0.1,M*59
2016-08-27 10:22	$HCHDG,293.6,0.0,E,10.9,E*74
2016-08-27 10:22	$WIMWV,1.6,R,0.0,N,A*24
2016-08-27 10:22	$WIMWD,0.0,T,349.1,M,0.0,N,0.0,M*55
2016-08-27 10:22	$GPGSA,A,3,22,23,1,14,31,32,11,3,26,,,,2.0,1.1,1.6*36
2016-08-27 10:22	$GPRMC,002203.00,A,3645.8322,S,14419.2892,E,0.0,339.2,270816,10.9,E,A*15
2016-08-27 10:22	$WIMDA,30.2210,I,1.0234,B,13.9,C,,,46.8,,2.7,C,279.1,T,268.2,M,0.4,N,0.2,M*5E
2016-08-27 10:22	$HCHDG,293.6,0.0,E,10.9,E*74
2016-08-27 10:22	$WIMWV,321.2,R,0.6,N,A*27
2016-08-27 10:22	$WIMWD,262.0,T,251.1,M,0.6,N,0.3,M*5E
2016-08-27 10:22	$GPGSA,A,3,22,23,1,14,31,32,11,3,26,,,,2.0,1.1,1.6*36
2016-08-27 10:22	$GPRMC,002204.00,A,3645.8320,S,14419.2893,E,0.0,354.8,270816,10.9,E,A*10
2016-08-27 10:22	$WIMDA,30.2239,I,1.0235,B,13.9,C,,,46.8,,2.7,C,274.5,T,263.6,M,0.5,N,0.3,M*52
2016-08-27 10:22	$HCHDG,293.6,0.0,E,10.9,E*74
2016-08-27 10:22	$WIMWV,1.6,R,0.4,N,A*20
2016-08-27 10:22	$WIMWD,306.2,T,295.3,M,0.4,N,0.2,M*56
2016-08-27 10:22	$GPGSA,A,3,22,23,1,14,31,32,11,3,26,,,,2.0,1.1,1.6*36
2016-08-27 10:22	$GPRMC,002205.00,A,3645.8319,S,14419.2894,E,0.0,25.0,270816,10.9,E,A*21
2016-08-27 10:22	$WIMDA,30.2239,I,1.0235,B,13.9,C,,,46.8,,2.7,C,329.1,T,318.2,M,0.7,N,0.4,M*53
2016-08-27 10:22	$HCHDG,293.6,0.0,E,10.9,E*74
2016-08-27 10:22	$WIMWV,24.2,R,0.6,N,A*11
2016-08-27 10:22	$WIMWD,329.0,T,318.1,M,0.6,N,0.3,M*5C
2016-08-27 10:22	$GPGSA,A,3,22,23,1,14,31,32,11,3,26,,,,2.0,1.1,1.6*36
2016-08-27 10:22	$GPRMC,002206.00,A,3645.8318,S,14419.2895,E,0.0,5.2,270816,10.9,E,A*12
2016-08-27 10:22	$WIMDA,30.2210,I,1.0234,B,13.9,C,,,46.8,,2.7,C,235.1,T,224.2,M,0.5,N,0.3,M*5E
2016-08-27 10:22	$HCHDG,293.6,0.0,E,10.9,E*74
2016-08-27 10:22	$WIMWV,271.3,R,0.5,N,A*21
2016-08-27 10:22	$WIMWD,215.8,T,204.9,M,0.6,N,0.3,M*5E
2016-08-27 10:22	$GPGSA,A,3,22,23,1,14,31,32,11,3,26,,,,2.0,1.1,1.6*36
2016-08-27 10:22	$GPRMC,002207.00,A,3645.8317,S,14419.2896,E,0.0,75.0,270816,10.9,E,A*2A
2016-08-27 10:22	$WIMDA,30.2180,I,1.0233,B,13.9,C,,,46.8,,2.7,C,183.7,T,172.8,M,0.7,N,0.4,M*54
2016-08-27 10:22	$HCHDG,293.6,0.0,E,10.9,E*74
2016-08-27 10:22	$WIMWV,271.3,R,0.6,N,A*22
2016-08-27 10:22	$WIMWD,215.8,T,204.9,M,0.6,N,0.3,M*5E
2016-08-27 10:22	$GPGSA,A,3,22,23,1,14,31,32,11,3,26,,,,2.0,1.1,1.6*36
2016-08-27 10:22	$GPRMC,002208.00,A,3645.8317,S,14419.2897,E,0.0,2.1,270816,10.9,E,A*15
2016-08-27 10:22	$WIMDA,30.2239,I,1.0235,B,13.9,C,,,46.9,,2.7,C,177.3,T,166.4,M,0.6,N,0.3,M*52
2016-08-27 10:22	$HCHDG,293.6,0.0,E,10.9,E*74
2016-08-27 10:22	$WIMWV,234.7,R,0.6,N,A*27
2016-08-27 10:22	$WIMWD,178.3,T,167.4,M,0.6,N,0.3,M*56
2016-08-27 10:22	$GPGSA,A,3,22,23,1,14,31,32,11,3,26,,,,2.0,1.1,1.6*36
2016-08-27 10:22	$GPRMC,002209.00,A,3645.8317,S,14419.2899,E,0.0,30.6,270816,10.9,E,A*2C
2016-08-27 10:22	$WIMDA,30.2239,I,1.0235,B,13.9,C,,,46.8,,2.7,C,215.8,T,204.9,M,0.5,N,0.3,M*56
2016-08-27 10:22	$HCHDG,293.6,0.0,E,10.9,E*74
2016-08-27 10:22	$WIMWV,271.3,R,0.5,N,A*21
2016-08-27 10:22	$WIMWD,215.8,T,204.9,M,0.5,N,0.3,M*5D
2016-08-27 10:22	$GPGSA,A,3,22,23,1,14,31,32,11,3,26,,,,2.0,1.1,1.6*36
2016-08-27 10:22	$GPRMC,002210.00,A,3645.8316,S,14419.2901,E,0.0,13.1,270816,10.9,E,A*23
2016-08-27 10:22	$WIMDA,30.2239,I,1.0235,B,13.9,C,,,46.8,,2.7,C,264.1,T,253.2,M,0.5,N,0.3,M*50
2016-08-27 10:22	$HCHDG,293.6,0.0,E,10.9,E*74
2016-08-27 10:22	$WIMWV,318.7,R,0.6,N,A*28
2016-08-27 10:22	$WIMWD,267.5,T,256.6,M,0.6,N,0.3,M*5E
2016-08-27 10:22	$GPGSA,A,3,22,23,1,14,31,32,11,3,26,,,,2.0,1.1,1.6*36
2016-08-27 10:22	$GPRMC,002211.00,A,3645.8316,S,14419.2904,E,0.0,333.3,270816,10.9,E,A*14
2016-08-27 10:22	$WIMDA,30.2269,I,1.0236,B,14.0,C,,,46.8,,2.8,C,267.9,T,257.0,M,0.5,N,0.3,M*5A
2016-08-27 10:22	$HCHDG,293.6,0.0,E,10.9,E*74
2016-08-27 10:22	$WIMWV,315.6,R,0.5,N,A*27
2016-08-27 10:22	$WIMWD,269.4,T,258.5,M,0.4,N,0.2,M*5F
2016-08-27 10:22	$GPGSA,A,3,22,23,1,14,31,32,11,3,26,,,,2.0,1.1,1.6*36
2016-08-27 10:22	$GPRMC,002212.00,A,3645.8316,S,14419.2906,E,0.0,212.0,270816,10.9,E,A*14
2016-08-27 10:22	$WIMDA,30.2269,I,1.0236,B,14.0,C,,,46.8,,2.8,C,11.4,T,0.5,M,0.7,N,0.4,M*64
2016-08-27 10:22	$HCHDG,293.5,0.0,E,10.9,E*77
2016-08-27 10:22	$WIMWV,51.5,R,0.8,N,A*1A
2016-08-27 10:22	$WIMWD,349.0,T,338.1,M,0.8,N,0.4,M*51
2016-08-27 10:22	$GPGSA,A,3,22,23,1,14,31,32,11,3,26,,,,2.0,1.1,1.6*36
2016-08-27 10:22	$GPRMC,002213.00,A,3645.8316,S,14419.2907,E,0.0,280.1,270816,10.9,E,A*1E
2016-08-27 10:22	$WIMDA,30.2269,I,1.0236,B,14.0,C,,,46.8,,2.8,C,343.2,T,332.3,M,0.8,N,0.4,M*5D
2016-08-27 10:22	$HCHDG,293.6,0.0,E,10.9,E*74
2016-08-27 10:22	$WIMWV,25.6,R,0.7,N,A*15
2016-08-27 10:22	$WIMWD,333.6,T,322.7,M,0.7,N,0.4,M*58
2016-08-27 10:22	$GPGSA,A,3,22,23,1,14,31,32,11,3,26,,,,2.0,1.1,1.6*36
2016-08-27 10:22	$GPRMC,002214.00,A,3645.8314,S,14419.2907,E,0.0,351.8,270816,10.9,E,A*1F
2016-08-27 10:22	$WIMDA,30.2269,I,1.0236,B,14.0,C,,,46.8,,2.8,C,341.3,T,330.4,M,0.3,N,0.2,M*56
2016-08-27 10:22	$HCHDG,293.6,0.0,E,10.9,E*74
2016-08-27 10:22	$WIMWV,37.2,R,0.5,N,A*10
2016-08-27 10:22	$WIMWD,343.5,T,332.6,M,0.5,N,0.3,M*59
2016-08-27 10:22	$GPGSA,A,3,22,23,1,14,31,32,11,3,26,,,,2.0,1.1,1.6*36
2016-08-27 10:22	$GPRMC,002215.00,A,3645.8313,S,14419.2907,E,0.0,134.1,270816,10.9,E,A*11
2016-08-27 10:22	$WIMDA,30.2328,I,1.0238,B,14.0,C,,,46.8,,2.8,C,345.3,T,334.4,M,0.6,N,0.3,M*58
2016-08-27 10:22	$HCHDG,293.6,0.0,E,10.9,E*74
2016-08-27 10:22	$WIMWV,45.1,R,0.4,N,A*17
2016-08-27 10:22	$WIMWD,348.3,T,337.4,M,0.5,N,0.3,M*53
2016-08-27 10:22	$GPGSA,A,3,22,23,1,14,31,32,11,3,26,,,,2.0,1.1,1.6*36
2016-08-27 10:22	$GPRMC,002216.00,A,3645.8312,S,14419.2906,E,0.0,170.8,270816,10.9,E,A*1B
2016-08-27 10:22	$WIMDA,30.2328,I,1.0238,B,14.0,C,,,46.8,,2.8,C,5.4,T,354.5,M,0.5,N,0.3,M*5C
2016-08-27 10:22	$HCHDG,293.6,0.0,E,10.9,E*74
2016-08-27 10:22	$WIMWV,60.7,R,0.6,N,A*14
2016-08-27 10:22	$WIMWD,3.0,T,352.1,M,0.6,N,0.3,M*59
2016-08-27 10:22	$GPGSA,A,3,22,23,1,14,31,32,11,3,26,,,,2.0,1.1,1.6*36
2016-08-27 10:22	$GPRMC,002217.00,A,3645.8310,S,14419.2904,E,0.0,335.2,270816,10.9,E,A*13
2016-08-27 10:22	$WIMDA,30.2328,I,1.0238,B,14.0,C,,,46.8,,2.8,C,0.4,T,349.5,M,0.6,N,0.3,M*56
2016-08-27 10:22	$HCHDG,293.6,0.0,E,10.9,E*74
2016-08-27 10:22	$WIMWV,52.8,R,0.4,N,A*18
2016-08-27 10:22	$WIMWD,36.8,T,25.9,M,0.2,N,0.1,M*5A
2016-08-27 10:22	$GPGSA,A,3,22,23,1,14,31,32,11,3,26,,,,2.0,1.1,1.6*36
2016-08-27 10:22	$GPRMC,002218.00,A,3645.8310,S,14419.2903,E,0.0,339.2,270816,10.9,E,A*17
2016-08-27 10:22	$WIMDA,30.2387,I,1.0240,B,14.0,C,,,46.8,,2.8,C,3.1,T,352.2,M,0.3,N,0.2,M*53
2016-08-27 10:22	$HCHDG,293.6,0.0,E,10.9,E*74
2016-08-27 10:22	$WIMWV,43.2,R,0.4,N,A*12
2016-08-27 10:22	$WIMWD,347.8,T,336.9,M,0.4,N,0.2,M*5B
2016-08-27 10:22	$GPGSA,A,3,22,23,1,14,31,32,11,3,26,,,,2.0,1.1,1.6*36
2016-08-27 10:22	$GPRMC,002219.00,A,3645.8309,S,14419.2904,E,0.0,173.4,270816,10.9,E,A*13
2016-08-27 10:22	$WIMDA,30.2328,I,1.0238,B,14.0,C,,,46.9,,2.8,C,355.3,T,344.4,M,0.5,N,0.3,M*5C
2016-08-27 10:22	$HCHDG,293.6,0.0,E,10.9,E*74
2016-08-27 10:22	$WIMWV,58.1,R,0.5,N,A*1A
2016-08-27 10:22	$WIMWD,3.0,T,352.1,M,0.5,N,0.3,M*5A
2016-08-27 10:22	$GPGSA,A,3,22,23,1,14,31,32,11,3,26,,,,2.0,1.1,1.6*36
2016-08-27 10:22	$GPRMC,002220.00,A,3645.8309,S,14419.2904,E,0.0,272.4,270816,10.9,E,A*1B
2016-08-27 10:22	$WIMDA,30.2358,I,1.0239,B,14.0,C,,,46.9,,2.8,C,18.1,T,7.2,M,0.6,N,0.3,M*63
2016-08-27 10:22	$HCHDG,293.6,0.0,E,10.9,E*74
2016-08-27 10:22	$WIMWV,73.4,R,0.7,N,A*14
2016-08-27 10:22	$WIMWD,18.7,T,7.8,M,0.7,N,0.4,M*68
2016-08-27 10:22	$GPGSA,A,3,22,23,1,14,31,32,11,3,26,,,,2.0,1.1,1.6*36
2016-08-27 10:22	$GPRMC,002221.00,A,3645.8309,S,14419.2903,E,0.0,271.3,270816,10.9,E,A*19
2016-08-27 10:22	$WIMDA,30.2358,I,1.0239,B,14.0,C,,,46.9,,2.8,C,19.5,T,8.6,M,0.9,N,0.5,M*64
2016-08-27 10:22	$HCHDG,293.6,0.0,E,10.9,E*74
2016-08-27 10:22	$WIMWV,74.8,R,1.0,N,A*19
2016-08-27 10:22	$WIMWD,19.2,T,8.3,M,0.9,N,0.5,M*67
2016-08-27 10:22	$GPGSA,A,3,22,23,1,14,31,32,11,3,26,,,,2.0,1.1,1.6*36
2016-08-27 10:22	$GPRMC,002222.00,A,3645.8309,S,14419.2904,E,0.0,120.4,270816,10.9,E,A*1D
2016-08-27 10:22	$WIMDA,30.2358,I,1.0239,B,14.0,C,,,46.9,,2.8,C,22.9,T,12.0,M,0.9,N,0.5,M*5D
2016-08-27 10:22	$HCHDG,293.6,0.0,E,10.9,E*74
2016-08-27 10:22	$WIMWV,71.8,R,0.9,N,A*14
2016-08-27 10:22	$WIMWD,16.6,T,5.7,M,1.0,N,0.5,M*6D
2016-08-27 10:22	$GPGSA,A,3,22,23,1,14,31,32,11,3,26,,,,2.0,1.1,1.6*36
2016-08-27 10:22	$GPRMC,002223.00,A,3645.8309,S,14419.2906,E,0.0,198.8,270816,10.9,E,A*11
2016-08-27 10:22	$WIMDA,30.2417,I,1.0241,B,14.0,C,,,46.9,,2.8,C,11.5,T,0.6,M,1.1,N,0.6,M*6D
2016-08-27 10:22	$HCHDG,293.6,0.0,E,10.9,E*74
2016-08-27 10:22	$WIMWV,64.4,R,1.3,N,A*17
2016-08-27 10:22	$WIMWD,8.5,T,357.6,M,1.3,N,0.7,M*55
2016-08-27 10:22	$GPGSA,A,3,22,23,1,14,31,32,11,3,26,,,,2.0,1.1,1.6*36
2016-08-27 10:22	$GPRMC,002224.00,A,3645.8309,S,14419.2907,E,0.0,355.9,270816,10.9,E,A*15
2016-08-27 10:22	$WIMDA,30.2387,I,1.0240,B,14.0,C,,,46.9,,2.8,C,339.2,T,328.3,M,1.9,N,1.0,M*5F
2016-08-27 10:22	$HCHDG,293.6,0.0,E,10.9,E*74
2016-08-27 10:22	$WIMWV,34.6,R,2.0,N,A*10
2016-08-27 10:22	$WIMWD,338.5,T,327.6,M,2.0,N,1.0,M*54
2016-08-27 10:22	$GPGSA,A,3,22,23,1,14,31,32,11,3,26,,,,2.0,1.1,1.6*36
2016-08-27 10:22	$GPRMC,002225.00,A,3645.8310,S,14419.2910,E,0.0,148.2,270816,10.9,E,A*1F
2016-08-27 10:22	$WIMDA,30.2417,I,1.0241,B,14.0,C,,,46.9,,2.8,C,337.2,T,326.3,M,1.9,N,1.0,M*50
2016-08-27 10:22	$HCHDG,293.6,0.0,E,10.9,E*74
2016-08-27 10:22	$WIMWV,34.3,R,2.0,N,A*15
2016-08-27 10:22	$WIMWD,338.5,T,327.6,M,2.0,N,1.0,M*54
2016-08-27 10:22	$GPGSA,A,3,22,23,1,14,31,32,11,3,26,,,,2.0,1.1,1.6*36
2016-08-27 10:22	$GPRMC,002226.00,A,3645.8311,S,14419.2913,E,0.0,306.8,270816,10.9,E,A*1C
2016-08-27 10:22	$WIMDA,30.2446,I,1.0242,B,14.0,C,,,46.9,,2.8,C,346.3,T,335.4,M,2.1,N,1.1,M*5F
2016-08-27 10:22	$HCHDG,293.6,0.0,E,10.9,E*74
2016-08-27 10:22	$WIMWV,43.8,R,2.1,N,A*1F
2016-08-27 10:22	$WIMWD,348.7,T,337.8,M,2.1,N,1.1,M*5E
2016-08-27 10:22	$GPGSA,A,3,22,23,1,14,31,32,11,3,26,,,,2.0,1.1,1.6*36
2016-08-27 10:22	$GPRMC,002227.00,A,3645.8312,S,14419.2915,E,0.0,190.0,270816,10.9,E,A*1D
2016-08-27 10:22	$WIMDA,30.2417,I,1.0241,B,14.0,C,,,46.9,,2.8,C,348.9,T,338.0,M,2.0,N,1.0,M*55
2016-08-27 10:22	$HCHDG,293.6,0.0,E,10.9,E*74
2016-08-27 10:22	$WIMWV,43.5,R,2.1,N,A*12
2016-08-27 10:22	$WIMWD,348.0,T,337.1,M,2.1,N,1.1,M*50
2016-08-27 10:22	$GPGSA,A,3,22,23,1,14,31,32,11,3,26,,,,2.0,1.1,1.6*36
2016-08-27 10:22	$GPRMC,002228.00,A,3645.8312,S,14419.2915,E,0.0,14.4,270816,10.9,E,A*2B
2016-08-27 10:22	$WIMDA,30.2417,I,1.0241,B,14.0,C,,,47.0,,2.8,C,336.2,T,325.3,M,2.1,N,1.1,M*50
2016-08-27 10:22	$HCHDG,293.6,0.0,E,10.9,E*74
2016-08-27 10:22	$WIMWV,29.5,R,2.2,N,A*1D
2016-08-27 10:22	$WIMWD,332.8,T,321.9,M,2.2,N,1.1,M*59
2016-08-27 10:22	$GPGSA,A,3,22,23,1,14,31,32,11,3,26,,,,2.0,1.1,1.6*36
2016-08-27 10:22	$GPRMC,002229.00,A,3645.8312,S,14419.2915,E,0.0,261.9,270816,10.9,E,A*17
2016-08-27 10:22	$WIMDA,30.2417,I,1.0241,B,14.0,C,,,47.0,,2.8,C,335.5,T,324.6,M,2.5,N,1.3,M*56
2016-08-27 10:22	$HCHDG,293.6,0.0,E,10.9,E*74
2016-08-27 10:22	$WIMWV,32.7,R,2.5,N,A*12
2016-08-27 10:22	$WIMWD,336.7,T,325.8,M,2.4,N,1.2,M*52
2016-08-27 10:22	$GPGSA,A,3,22,23,1,14,31,32,11,3,26,,,,2.0,1.1,1.6*36
2016-08-27 10:22	$GPRMC,002230.00,A,3645.8312,S,14419.2915,E,0.0,295.7,270816,10.9,E,A*1A
2016-08-27 10:22	$WIMDA,30.2387,I,1.0240,B,14.0,C,,,47.0,,2.8,C,328.2,T,317.3,M,2.0,N,1.0,M*51
2016-08-27 10:22	$HCHDG,293.5,0.0,E,10.9,E*77
2016-08-27 10:22	$WIMWV,25.3,R,2.3,N,A*16
2016-08-27 10:22	$WIMWD,331.0,T,320.1,M,2.3,N,1.2,M*59
2016-08-27 10:22	$GPGSA,A,3,22,23,1,14,31,32,11,3,26,,,,2.0,1.1,1.6*36
2016-08-27 10:22	$GPRMC,002231.00,A,3645.8312,S,14419.2915,E,0.0,204.7,270816,10.9,E,A*13
2016-08-27 10:22	$WIMDA,30.2417,I,1.0241,B,13.9,C,,,47.0,,2.7,C,313.4,T,302.5,M,1.6,N,0.8,M*5F
2016-08-27 10:22	$HCHDG,293.5,0.0,E,10.9,E*77
2016-08-27 10:22	$WIMWV,1.6,R,1.3,N,A*26
2016-08-27 10:22	$WIMWD,306.2,T,295.3,M,1.3,N,0.7,M*55
2016-08-27 10:22	$GPGSA,A,3,22,23,1,14,31,32,11,3,26,,,,2.0,1.1,1.6*36
2016-08-27 10:22	$GPRMC,002232.00,A,3645.8312,S,14419.2915,E,0.0,13.9,270816,10.9,E,A*2A
2016-08-27 10:22	$WIMDA,30.2387,I,1.0240,B,13.9,C,,,47.0,,2.7,C,327.8,T,316.9,M,2.0,N,1.0,M*5E
2016-08-27 10:22	$HCHDG,293.6,0.0,E,10.9,E*74
2016-08-27 10:22	$WIMWV,17.3,R,2.4,N,A*10
2016-08-27 10:22	$WIMWD,322.3,T,311.4,M,2.5,N,1.3,M*58
2016-08-27 10:22	$GPGSA,A,3,22,23,1,14,31,32,11,3,26,,,,2.0,1.1,1.6*36
2016-08-27 10:22	$GPRMC,002233.00,A,3645.8311,S,14419.2914,E,0.0,207.1,270816,10.9,E,A*16
2016-08-27 10:22	$WIMDA,30.2417,I,1.0241,B,13.9,C,,,47.0,,2.7,C,315.4,T,304.5,M,3.4,N,1.7,M*51
2016-08-27 10:22	$HCHDG,293.6,0.0,E,10.9,E*74
2016-08-27 10:22	$WIMWV,11.6,R,3.5,N,A*13
2016-08-27 10:22	$WIMWD,317.2,T,306.3,M,3.5,N,1.8,M*54
2016-08-27 10:22	$GPGSA,A,3,22,23,1,14,31,32,11,3,26,,,,2.0,1.1,1.6*36
2016-08-27 10:22	$GPRMC,002234.00,A,3645.8311,S,14419.2913,E,0.0,321.8,270816,10.9,E,A*1A
2016-08-27 10:22	$WIMDA,30.2417,I,1.0241,B,13.9,C,,,47.0,,2.7,C,324.3,T,313.4,M,3.5,N,1.8,M*5D
2016-08-27 10:22	$HCHDG,293.6,0.0,E,10.9,E*74
2016-08-27 10:22	$WIMWV,17.9,R,3.4,N,A*1B
2016-08-27 10:22	$WIMWD,322.4,T,311.5,M,3.5,N,1.8,M*54
2016-08-27 10:22	$GPGSA,A,3,22,23,1,14,31,32,11,3,26,,,,2.0,1.1,1.6*36
2016-08-27 10:22	$GPRMC,002235.00,A,3645.8312,S,14419.2912,E,0.0,225.9,270816,10.9,E,A*1D
2016-08-27 10:22	$WIMDA,30.2387,I,1.0240,B,13.8,C,,,47.0,,2.6,C,328.8,T,317.9,M,3.3,N,1.7,M*55
2016-08-27 10:22	$HCHDG,293.6,0.0,E,10.9,E*74
2016-08-27 10:22	$WIMWV,28.9,R,3.4,N,A*17
2016-08-27 10:22	$WIMWD,332.8,T,321.9,M,3.3,N,1.7,M*5F
2016-08-27 10:22	$GPGSA,A,3,22,23,1,14,31,32,11,3,26,,,,2.0,1.1,1.6*36
2016-08-27 10:22	$GPRMC,002236.00,A,3645.8311,S,14419.2909,E,0.0,154.1,270816,10.9,E,A*1A
2016-08-27 10:22	$WIMDA,30.2387,I,1.0240,B,13.8,C,,,47.0,,2.6,C,336.2,T,325.3,M,2.6,N,1.3,M*5B
2016-08-27 10:22	$HCHDG,293.6,0.0,E,10.9,E*74
2016-08-27 10:22	$WIMWV,30.0,R,2.0,N,A*12
2016-08-27 10:22	$WIMWD,334.4,T,323.5,M,1.9,N,1.0,M*54
2016-08-27 10:22	$GPGSA,A,3,22,23,1,14,31,32,11,3,26,,,,2.0,1.1,1.6*36
2016-08-27 10:22	$GPRMC,002237.00,A,3645.8311,S,14419.2907,E,0.0,261.9,270816,10.9,E,A*18
2016-08-27 10:22	$WIMDA,30.2387,I,1.0240,B,13.8,C,,,47.0,,2.6,C,335.9,T,325.0,M,1.5,N,0.8,M*5A
2016-08-27 10:22	$HCHDG,293.6,0.0,E,10.9,E*74
2016-08-27 10:22	$WIMWV,36.1,R,1.4,N,A*12
2016-08-27 10:22	$WIMWD,344.8,T,333.9,M,1.4,N,0.7,M*59
2016-08-27 10:22	$GPGSA,A,3,22,23,1,14,31,32,11,3,26,,,,2.0,1.1,1.6*36
2016-08-27 10:22	$GPRMC,002238.00,A,3645.8311,S,14419.2905,E,0.0,87.0,270816,10.9,E,A*26
2016-08-27 10:22	$WIMDA,30.2417,I,1.0241,B,13.8,C,,,47.0,,2.6,C,349.7,T,338.8,M,1.3,N,0.7,M*5D
2016-08-27 10:22	$HCHDG,293.5,0.0,E,10.9,E*77
2016-08-27 10:22	$WIMWV,52.2,R,1.6,N,A*11
2016-08-27 10:22	$WIMWD,356.1,T,345.2,M,1.6,N,0.8,M*54
2016-08-27 10:22	$GPGSA,A,3,22,23,1,14,31,32,11,3,26,,,,2.0,1.1,1.6*36
2016-08-27 10:22	$GPRMC,002239.00,A,3645.8312,S,14419.2905,E,0.0,14.8,270816,10.9,E,A*26
2016-08-27 10:22	$WIMDA,30.2387,I,1.0240,B,13.8,C,,,47.0,,2.6,C,341.0,T,330.1,M,2.4,N,1.2,M*5C
2016-08-27 10:22	$HCHDG,293.6,0.0,E,10.9,E*74
2016-08-27 10:22	$WIMWV,43.4,R,2.2,N,A*10
2016-08-27 10:22	$WIMWD,347.2,T,336.3,M,2.1,N,1.1,M*5E
2016-08-27 10:22	$GPGSA,A,3,22,23,1,14,31,32,11,3,26,,,,2.0,1.1,1.6*36
2016-08-27 10:22	$GPRMC,002240.00,A,3645.8313,S,14419.2903,E,0.0,342.8,270816,10.9,E,A*1F
2016-08-27 10:22	$WIMDA,30.2417,I,1.0241,B,13.8,C,,,47.0,,2.6,C,353.1,T,342.2,M,1.8,N,0.9,M*52
2016-08-27 10:22	$HCHDG,293.6,0.0,E,10.9,E*74
2016-08-27 10:22	$WIMWV,40.1,R,1.6,N,A*11
2016-08-27 10:22	$WIMWD,343.1,T,332.2,M,1.6,N,0.8,M*50
2016-08-27 10:22	$GPGSA,A,3,22,23,1,14,31,32,11,3,26,,,,2.0,1.1,1.6*36
2016-08-27 10:22	$GPRMC,002241.00,A,3645.8313,S,14419.2899,E,0.0,2.6,270816,10.9,E,A*15
2016-08-27 10:22	$WIMDA,30.2358,I,1.0239,B,13.8,C,,,47.0,,2.6,C,334.8,T,323.9,M,1.2,N,0.6,M*50
2016-08-27 10:22	$HCHDG,293.6,0.0,E,10.9,E*74
2016-08-27 10:22	$WIMWV,17.3,R,1.0,N,A*17
2016-08-27 10:22	$WIMWD,323.8,T,312.9,M,1.0,N,0.5,M*5D
2016-08-27 10:22	$GPGSA,A,3,22,23,1,14,31,32,11,3,26,,,,2.0,1.1,1.6*36
2016-08-27 10:22	$GPRMC,002242.00,A,3645.8312,S,14419.2897,E,0.0,166.5,270816,10.9,E,A*19
2016-08-27 10:22	$WIMDA,30.2387,I,1.0240,B,13.8,C,,,47.0,,2.6,C,344.4,T,333.5,M,0.4,N,0.2,M*59
2016-08-27 10:22	$HCHDG,293.6,0.0,E,10.9,E*74
2016-08-27 10:22	$WIMWV,92.3,R,0.3,N,A*18
2016-08-27 10:22	$WIMWD,36.7,T,25.8,M,0.2,N,0.1,M*54
2016-08-27 10:22	$GPGSA,A,3,22,23,1,14,31,32,11,3,26,,,,2.0,1.1,1.6*36
2016-08-27 10:22	$GPRMC,002243.00,A,3645.8313,S,14419.2897,E,0.0,287.5,270816,10.9,E,A*15
2016-08-27 10:22	$WIMDA,30.2358,I,1.0239,B,13.9,C,,,47.0,,2.7,C,126.1,T,115.2,M,0.3,N,0.2,M*50
2016-08-27 10:22	$HCHDG,293.5,0.0,E,10.9,E*77
2016-08-27 10:22	$WIMWV,181.7,R,0.3,N,A*2F
2016-08-27 10:22	$WIMWD,126.2,T,115.3,M,0.4,N,0.2,M*5D
2016-08-27 10:22	$GPGSA,A,3,22,23,1,14,31,32,11,3,26,,,,2.0,1.1,1.6*36
2016-08-27 10:22	$GPRMC,002244.00,A,3645.8315,S,14419.2897,E,0.0,128.8,270816,10.9,E,A*1F
2016-08-27 10:22	$WIMDA,30.2358,I,1.0239,B,13.9,C,,,47.0,,2.7,C,101.0,T,90.1,M,0.7,N,0.4,M*69
2016-08-27 10:22	$HCHDG,293.5,0.0,E,10.9,E*77
2016-08-27 10:22	$WIMWV,152.6,R,0.7,N,A*24
2016-08-27 10:22	$WIMWD,99.1,T,88.2,M,0.6,N,0.3,M*5C
2016-08-27 10:22	$GPGSA,A,3,22,23,1,14,31,32,11,3,26,,,,2.0,1.1,1.6*36
2016-08-27 10:22	$GPRMC,002245.00,A,3645.8318,S,14419.2898,E,0.0,146.1,270816,10.9,E,A*1D
2016-08-27 10:22	$WIMDA,30.2358,I,1.0239,B,13.9,C,,,47.0,,2.7,C,126.2,T,115.3,M,0.2,N,0.1,M*50
2016-08-27 10:22	$HCHDG,293.6,0.0,E,10.9,E*74
2016-08-27 10:22	$WIMWV,131.2,R,0.5,N,A*27
2016-08-27 10:22	$WIMWD,75.8,T,64.9,M,0.6,N,0.3,M*5E
2016-08-27 10:22	$GPGSA,A,3,22,23,1,14,31,32,11,3,26,,,,2.0,1.1,1.6*36
2016-08-27 10:22	$GPRMC,002246.00,A,3645.8319,S,14419.2898,E,0.0,259.5,270816,10.9,E,A*16
2016-08-27 10:22	$WIMDA,30.2328,I,1.0238,B,13.9,C,,,47.0,,2.7,C,84.8,T,73.9,M,1.3,N,0.7,M*58
2016-08-27 10:22	$HCHDG,293.6,0.0,E,10.9,E*74
2016-08-27 10:22	$WIMWV,130.5,R,1.3,N,A*26
2016-08-27 10:22	$WIMWD,78.0,T,67.1,M,1.1,N,0.6,M*53
2016-08-27 10:22	$GPGSA,A,3,22,23,1,14,31,32,11,3,26,,,,2.0,1.1,1.6*36
2016-08-27 10:22	$GPRMC,002247.00,A,3645.8321,S,14419.2897,E,0.1,218.8,270816,10.9,E,A*1A
2016-08-27 10:22	$WIMDA,30.2328,I,1.0238,B,13.9,C,,,47.0,,2.7,C,83.7,T,72.8,M,0.7,N,0.4,M*56
2016-08-27 10:22	$HCHDG,293.6,0.0,E,10.9,E*74
2016-08-27 10:22	$WIMWV,144.7,R,0.6,N,A*23
2016-08-27 10:22	$WIMWD,88.0,T,77.1,M,0.6,N,0.3,M*5E
2016-08-27 10:22	$GPGSA,A,3,22,23,1,14,31,32,11,3,26,,,,2.0,1.1,1.6*36
2016-08-27 10:22	$GPRMC,002248.00,A,3645.8322,S,14419.2898,E,0.0,149.1,270816,10.9,E,A*16
2016-08-27 10:22	$WIMDA,30.2298,I,1.0237,B,13.9,C,,,47.0,,2.7,C,144.6,T,133.7,M,0.5,N,0.3,M*56
2016-08-27 10:22	$HCHDG,293.6,0.0,E,10.9,E*74
2016-08-27 10:22	$WIMWV,197.4,R,0.6,N,A*2E
2016-08-27 10:22	$WIMWD,141.5,T,130.6,M,0.6,N,0.3,M*5A
2016-08-27 10:22	$GPGSA,A,3,22,23,1,14,31,32,11,3,26,,,,2.0,1.1,1.6*36
2016-08-27 10:22	$GPRMC,002249.00,A,3645.8324,S,14419.2899,E,0.0,269.6,270816,10.9,E,A*16
2016-08-27 10:22	$WIMDA,30.2328,I,1.0238,B,13.9,C,,,47.0,,2.7,C,154.0,T,143.1,M,0.6,N,0.3,M*56
2016-08-27 10:22	$HCHDG,293.6,0.0,E,10.9,E*74
2016-08-27 10:22	$WIMWV,215.3,R,0.7,N,A*21
2016-08-27 10:22	$WIMWD,159.8,T,148.9,M,0.7,N,0.4,M*58
2016-08-27 10:22	$GPGSA,A,3,22,23,1,14,31,32,11,3,26,,,,2.0,1.1,1.6*36
2016-08-27 10:22	$GPRMC,002250.00,A,3645.8325,S,14419.2901,E,0.0,143.6,270816,10.9,E,A*14
2016-08-27 10:22	$WIMDA,30.2298,I,1.0237,B,13.9,C,,,47.0,,2.7,C,145.1,T,134.2,M,0.7,N,0.4,M*57
2016-08-27 10:22	$HCHDG,293.6,0.0,E,10.9,E*74
2016-08-27 10:22	$WIMWV,200.6,R,0.8,N,A*2F
2016-08-27 10:22	$WIMWD,138.8,T,127.9,M,0.7,N,0.4,M*56
2016-08-27 10:22	$GPGSA,A,3,22,23,1,14,31,32,11,3,26,,,,2.0,1.1,1.6*36
2016-08-27 10:22	$GPRMC,002251.00,A,3645.8327,S,14419.2903,E,0.0,296.3,270816,10.9,E,A*1B
2016-08-27 10:22	$WIMDA,30.2298,I,1.0237,B,14.0,C,,,47.0,,2.8,C,141.4,T,130.5,M,0.7,N,0.4,M*54
2016-08-27 10:22	$HCHDG,293.6,0.0,E,10.9,E*74
2016-08-27 10:22	$WIMWV,204.2,R,0.9,N,A*2E
2016-08-27 10:22	$WIMWD,149.9,T,139.0,M,0.8,N,0.4,M*58
2016-08-27 10:22	$GPGSA,A,3,22,23,1,14,31,32,11,3,26,,,,2.0,1.1,1.6*36
2016-08-27 10:22	$GPRMC,002252.00,A,3645.8328,S,14419.2905,E,0.0,221.3,270816,10.9,E,A*1D
2016-08-27 10:22	$WIMDA,30.2358,I,1.0239,B,14.0,C,,,47.0,,2.8,C,168.4,T,157.5,M,1.1,N,0.6,M*58
2016-08-27 10:22	$HCHDG,293.6,0.0,E,10.9,E*74
2016-08-27 10:22	$WIMWV,222.8,R,1.3,N,A*2B
2016-08-27 10:22	$WIMWD,167.1,T,156.2,M,1.3,N,0.7,M*5E
2016-08-27 10:22	$GPGSA,A,3,22,23,1,14,31,32,11,3,26,,,,2.0,1.1,1.6*36
2016-08-27 10:22	$GPRMC,002253.00,A,3645.8328,S,14419.2905,E,0.0,159.3,270816,10.9,E,A*10
2016-08-27 10:22	$WIMDA,30.2328,I,1.0238,B,14.0,C,,,47.0,,2.8,C,147.0,T,136.1,M,1.4,N,0.7,M*50
2016-08-27 10:22	$HCHDG,293.5,0.0,E,10.9,E*77
2016-08-27 10:22	$WIMWV,204.7,R,1.6,N,A*25
2016-08-27 10:22	$WIMWD,149.0,T,138.1,M,1.6,N,0.8,M*52
2016-08-27 10:22	$GPGSA,A,3,22,23,1,14,31,32,11,3,26,,,,2.0,1.1,1.6*36
2016-08-27 10:22	$GPRMC,002254.00,A,3645.8328,S,14419.2905,E,0.0,333.2,270816,10.9,E,A*18
2016-08-27 10:22	$WIMDA,30.2328,I,1.0238,B,14.0,C,,,47.0,,2.8,C,173.7,T,162.8,M,2.1,N,1.1,M*59
2016-08-27 10:22	$HCHDG,293.6,0.0,E,10.9,E*74
2016-08-27 10:22	$WIMWV,246.1,R,1.8,N,A*2B
2016-08-27 10:22	$WIMWD,191.7,T,180.8,M,1.8,N,0.9,M*55
2016-08-27 10:22	$GPGSA,A,3,22,23,1,14,31,32,11,3,26,,,,2.0,1.1,1.6*36
2016-08-27 10:22	$GPRMC,002255.00,A,3645.8328,S,14419.2904,E,0.0,346.6,270816,10.9,E,A*1E
2016-08-27 10:22	$WIMDA,30.2358,I,1.0239,B,14.0,C,,,47.0,,2.8,C,195.8,T,184.9,M,0.8,N,0.4,M*5E
2016-08-27 10:22	$HCHDG,293.6,0.0,E,10.9,E*74
2016-08-27 10:22	$WIMWV,253.8,R,0.7,N,A*28
2016-08-27 10:22	$WIMWD,200.2,T,189.3,M,0.7,N,0.4,M*5A
2016-08-27 10:22	$GPGSA,A,3,22,23,1,14,31,32,11,3,26,,,,2.0,1.1,1.6*36
2016-08-27 10:22	$GPRMC,002256.00,A,3645.8327,S,14419.2903,E,0.0,240.0,270816,10.9,E,A*14
2016-08-27 10:22	$WIMDA,30.2328,I,1.0238,B,14.0,C,,,47.0,,2.8,C,154.5,T,143.6,M,0.3,N,0.2,M*51
2016-08-27 10:22	$HCHDG,293.6,0.0,E,10.9,E*74
2016-08-27 10:22	$WIMWV,223.4,R,0.4,N,A*20
2016-08-27 10:22	$WIMWD,167.8,T,156.9,M,0.4,N,0.2,M*5F
2016-08-27 10:22	$GPGSA,A,3,22,23,1,14,31,32,11,3,26,,,,2.0,1.1,1.6*36
2016-08-27 10:22	$GPRMC,002257.00,A,3645.8326,S,14419.2901,E,0.0,348.9,270816,10.9,E,A*16
2016-08-27 10:22	$WIMDA,30.2328,I,1.0238,B,14.0,C,,,47.0,,2.8,C,80.3,T,69.4,M,0.3,N,0.2,M*54
2016-08-27 10:22	$HCHDG,293.6,0.0,E,10.9,E*74
2016-08-27 10:22	$WIMWV,129.2,R,0.3,N,A*28
2016-08-27 10:22	$WIMWD,70.2,T,59.3,M,0.3,N,0.2,M*51
2016-08-27 10:23	$GPGSA,A,3,22,23,1,14,31,32,11,3,26,,,,2.0,1.1,1.6*36
2016-08-27 10:23	$GPRMC,002258.00,A,3645.8326,S,14419.2901,E,0.0,65.1,270816,10.9,E,A*2D
2016-08-27 10:23	$WIMDA,30.2358,I,1.0239,B,14.0,C,,,47.0,,2.8,C,344.2,T,333.3,M,0.5,N,0.3,M*54
2016-08-27 10:23	$HCHDG,293.6,0.0,E,10.9,E*74
2016-08-27 10:23	$WIMWV,1.6,R,0.4,N,A*20
2016-08-27 10:23	$WIMWD,306.2,T,295.3,M,0.4,N,0.2,M*56
2016-08-27 10:23	$GPGSA,A,3,22,23,1,14,31,32,11,3,26,,,,2.0,1.1,1.6*36
2016-08-27 10:23	$GPRMC,002259.00,A,3645.8325,S,14419.2900,E,0.0,195.3,270816,10.9,E,A*12
2016-08-27 10:23	$WIMDA,30.2328,I,1.0238,B,14.0,C,,,47.0,,2.8,C,236.9,T,226.0,M,0.6,N,0.3,M*58
2016-08-27 10:23	$HCHDG,293.6,0.0,E,10.9,E*74
2016-08-27 10:23	$WIMWV,296.7,R,0.8,N,A*21
2016-08-27 10:23	$WIMWD,241.2,T,230.3,M,0.7,N,0.4,M*5E
2016-08-27 10:23	$GPGSA,A,3,22,23,1,14,31,32,11,3,26,,,,2.0,1.1,1.6*36
2016-08-27 10:23	$GPRMC,002300.00,A,3645.8324,S,14419.2899,E,0.0,221.9,270816,10.9,E,A*19
2016-08-27 10:23	$WIMDA,30.2328,I,1.0238,B,14.0,C,,,47.0,,2.8,C,254.5,T,243.6,M,0.8,N,0.4,M*5C
2016-08-27 10:23	$HCHDG,293.6,0.0,E,10.9,E*74
2016-08-27 10:23	$WIMWV,317.8,R,0.8,N,A*26
2016-08-27 10:23	$WIMWD,261.4,T,250.5,M,0.7,N,0.4,M*5A
2016-08-27 10:23	$GPGSA,A,3,22,23,1,14,31,32,11,3,26,,,,2.0,1.1,1.6*36
2016-08-27 10:23	$GPRMC,002301.00,A,3645.8324,S,14419.2899,E,0.0,206.6,270816,10.9,E,A*12
2016-08-27 10:23	$WIMDA,30.2328,I,1.0238,B,14.0,C,,,47.0,,2.8,C,238.4,T,227.5,M,0.5,N,0.3,M*5C
2016-08-27 10:23	$HCHDG,293.6,0.0,E,10.9,E*74
2016-08-27 10:23	$WIMWV,271.3,R,0.6,N,A*22
2016-08-27 10:23	$WIMWD,215.8,T,204.9,M,0.6,N,0.3,M*5E
2016-08-27 10:23	$GPGSA,A,3,22,23,1,14,31,32,11,3,26,,,,2.0,1.1,1.6*36
2016-08-27 10:23	$GPRMC,002302.00,A,3645.8324,S,14419.2899,E,0.0,311.7,270816,10.9,E,A*17
2016-08-27 10:23	$WIMDA,30.2328,I,1.0238,B,14.0,C,,,47.0,,2.8,C,215.8,T,204.9,M,0.3,N,0.2,M*55
2016-08-27 10:23	$HCHDG,293.6,0.0,E,10.9,E*74
2016-08-27 10:23	$WIMWV,271.3,R,0.4,N,A*20
2016-08-27 10:23	$WIMWD,189.2,T,178.3,M,0.5,N,0.3,M*53
2016-08-27 10:23	$GPGSA,A,3,22,23,1,14,31,32,11,3,26,,,,2.0,1.1,1.6*36
2016-08-27 10:23	$GPRMC,002303.00,A,3645.8324,S,14419.2899,E,0.0,271.4,270816,10.9,E,A*12
2016-08-27 10:23	$WIMDA,30.2328,I,1.0238,B,14.0,C,,,47.0,,2.8,C,194.4,T,183.5,M,0.7,N,0.4,M*51
2016-08-27 10:23	$HCHDG,293.6,0.0,E,10.9,E*74
2016-08-27 10:23	$WIMWV,271.3,R,0.7,N,A*23
2016-08-27 10:23	$WIMWD,215.8,T,204.9,M,0.7,N,0.4,M*58
2016-08-27 10:23	$GPGSA,A,3,22,23,1,14,31,32,11,3,26,,,,2.0,1.1,1.6*36
2016-08-27 10:23	$GPRMC,002304.00,A,3645.8326,S,14419.2899,E,0.0,109.1,270816,10.9,E,A*1E
2016-08-27 10:23	$WIMDA,30.2328,I,1.0238,B,14.0,C,,,47.0,,2.8,C,306.1,T,295.2,M,0.3,N,0.2,M*5C
2016-08-27 10:23	$HCHDG,293.5,0.0,E,10.9,E*77
2016-08-27 10:23	$WIMWV,1.6,R,0.6,N,A*22
2016-08-27 10:23	$WIMWD,306.1,T,295.2,M,0.7,N,0.4,M*51
2016-08-27 10:23	$GPGSA,A,3,22,23,1,14,31,32,11,3,26,,,,2.0,1.1,1.6*36
2016-08-27 10:23	$GPRMC,002305.00,A,3645.8327,S,14419.2901,E,0.0,191.7,270816,10.9,E,A*19
2016-08-27 10:23	$WIMDA,30.2387,I,1.0240,B,14.0,C,,,47.1,,2.8,C,328.7,T,317.8,M,0.9,N,0.5,M*51
2016-08-27 10:23	$HCHDG,293.5,0.0,E,10.9,E*77
2016-08-27 10:23	$WIMWV,30.2,R,1.0,N,A*13
2016-08-27 10:23	$WIMWD,333.1,T,322.2,M,0.8,N,0.4,M*55
2016-08-27 10:23	$GPGSA,A,3,22,23,1,14,31,32,11,3,26,,,,2.0,1.1,1.6*36
2016-08-27 10:23	$GPRMC,002306.00,A,3645.8327,S,14419.2901,E,0.0,184.2,270816,10.9,E,A*1B
2016-08-27 10:23	$WIMDA,30.2358,I,1.0239,B,14.0,C,,,47.1,,2.8,C,354.4,T,343.5,M,1.1,N,0.6,M*53
2016-08-27 10:23	$HCHDG,293.5,0.0,E,10.9,E*77
2016-08-27 10:23	$WIMWV,54.5,R,1.1,N,A*17
2016-08-27 10:23	$WIMWD,358.5,T,347.6,M,1.0,N,0.5,M*53
2016-08-27 10:23	$GPGSA,A,3,22,23,1,14,31,32,11,3,26,,,,2.0,1.1,1.6*36
2016-08-27 10:23	$GPRMC,002307.00,A,3645.8327,S,14419.2900,E,0.0,4.0,270816,10.9,E,A*10
2016-08-27 10:23	$WIMDA,30.2387,I,1.0240,B,14.0,C,,,47.1,,2.8,C,354.1,T,343.2,M,1.1,N,0.6,M*5D
2016-08-27 10:23	$HCHDG,293.6,0.0,E,10.9,E*74
2016-08-27 10:23	$WIMWV,44.1,R,1.3,N,A*10
2016-08-27 10:23	$WIMWD,343.7,T,332.8,M,1.6,N,0.8,M*5C
2016-08-27 10:23	$GPGSA,A,3,22,23,1,14,31,32,11,3,26,,,,2.0,1.1,1.6*36
2016-08-27 10:23	$GPRMC,002308.00,A,3645.8327,S,14419.2898,E,0.0,300.0,270816,10.9,E,A*18
2016-08-27 10:23	$WIMDA,30.2358,I,1.0239,B,14.0,C,,,47.2,,2.9,C,334.8,T,323.9,M,2.0,N,1.0,M*54
2016-08-27 10:23	$HCHDG,293.6,0.0,E,10.9,E*74
2016-08-27 10:23	$WIMWV,24.0,R,1.7,N,A*13
2016-08-27 10:23	$WIMWD,330.6,T,319.7,M,1.7,N,0.9,M*5F
2016-08-27 10:23	$GPGSA,A,3,22,23,1,14,31,32,11,3,26,,,,2.0,1.1,1.6*36
2016-08-27 10:23	$GPRMC,002309.00,A,3645.8328,S,14419.2897,E,0.0,41.8,270816,10.9,E,A*27
2016-08-27 10:23	$WIMDA,30.2358,I,1.0239,B,14.0,C,,,47.1,,2.8,C,331.6,T,320.7,M,1.6,N,0.8,M*5C
2016-08-27 10:23	$HCHDG,293.6,0.0,E,10.9,E*74
2016-08-27 10:23	$WIMWV,26.4,R,1.5,N,A*17
2016-08-27 10:23	$WIMWD,331.4,T,320.5,M,1.5,N,0.8,M*57
2016-08-27 10:23	$GPGSA,A,3,22,23,1,14,31,32,11,3,26,,,,2.0,1.1,1.6*36
2016-08-27 10:23	$GPRMC,002310.00,A,3645.8328,S,14419.2895,E,0.0,2.4,270816,10.9,E,A*16
2016-08-27 10:23	$WIMDA,30.2387,I,1.0240,B,14.0,C,,,47.2,,2.9,C,335.0,T,324.1,M,1.7,N,0.9,M*52
2016-08-27 10:23	$HCHDG,293.6,0.0,E,10.9,E*74
2016-08-27 10:23	$WIMWV,33.4,R,1.9,N,A*1F
2016-08-27 10:23	$WIMWD,338.3,T,327.4,M,2.0,N,1.0,M*50
2016-08-27 10:23	$GPGSA,A,3,22,23,1,14,31,32,11,3,26,,,,2.0,1.1,1.6*36
2016-08-27 10:23	$GPRMC,002311.00,A,3645.8328,S,14419.2892,E,0.0,163.0,270816,10.9,E,A*12
2016-08-27 10:23	$WIMDA,30.2328,I,1.0238,B,14.0,C,,,47.2,,2.9,C,343.6,T,332.7,M,2.6,N,1.3,M*57
2016-08-27 10:23	$HCHDG,293.5,0.0,E,10.9,E*77
2016-08-27 10:23	$WIMWV,42.3,R,2.4,N,A*10
2016-08-27 10:23	$WIMWD,347.6,T,336.7,M,2.4,N,1.2,M*58
2016-08-27 10:23	$GPGSA,A,3,22,23,1,14,31,32,11,3,26,,,,2.0,1.1,1.6*36
2016-08-27 10:23	$GPRMC,002312.00,A,3645.8330,S,14419.2890,E,0.0,156.0,270816,10.9,E,A*1C
2016-08-27 10:23	$WIMDA,30.2328,I,1.0238,B,14.0,C,,,47.2,,2.9,C,5.7,T,354.8,M,1.7,N,0.9,M*51
2016-08-27 10:23	$HCHDG,293.5,0.0,E,10.9,E*77
2016-08-27 10:23	$WIMWV,60.3,R,1.7,N,A*10
2016-08-27 10:23	$WIMWD,3.2,T,352.3,M,1.7,N,0.9,M*53
2016-08-27 10:23	$GPGSA,A,3,22,23,1,14,31,32,11,3,26,,,,2.0,1.1,1.6*36
2016-08-27 10:23	$GPRMC,002313.00,A,3645.8331,S,14419.2890,E,0.0,91.6,270816,10.9,E,A*20
2016-08-27 10:23	$WIMDA,30.2298,I,1.0237,B,14.0,C,,,47.2,,2.9,C,16.2,T,5.3,M,1.3,N,0.7,M*65
2016-08-27 10:23	$HCHDG,293.6,0.0,E,10.9,E*74
2016-08-27 10:23	$WIMWV,85.6,R,1.5,N,A*1C
2016-08-27 10:23	$WIMWD,29.6,T,18.7,M,1.5,N,0.8,M*55
2016-08-27 10:23	$GPGSA,A,3,22,23,1,14,31,32,11,3,26,,,,2.0,1.1,1.6*36
2016-08-27 10:23	$GPRMC,002314.00,A,3645.8332,S,14419.2891,E,0.0,100.7,270816,10.9,E,A*1D
2016-08-27 10:23	$WIMDA,30.2328,I,1.0238,B,14.0,C,,,47.2,,2.9,C,28.3,T,17.4,M,1.4,N,0.7,M*5F
2016-08-27 10:23	$HCHDG,293.6,0.0,E,10.9,E*74
2016-08-27 10:23	$WIMWV,98.4,R,1.6,N,A*11
2016-08-27 10:23	$WIMWD,44.4,T,33.5,M,1.6,N,0.8,M*54
2016-08-27 10:23	$GPGSA,A,3,22,23,1,14,31,32,11,3,26,,,,2.0,1.1,1.6*36
2016-08-27 10:23	$GPRMC,002315.00,A,3645.8333,S,14419.2889,E,0.0,307.4,270816,10.9,E,A*12
2016-08-27 10:23	$WIMDA,30.2328,I,1.0238,B,14.0,C,,,47.2,,2.9,C,58.4,T,47.5,M,2.3,N,1.2,M*5B
2016-08-27 10:23	$HCHDG,293.6,0.0,E,10.9,E*74
2016-08-27 10:23	$WIMWV,102.5,R,2.1,N,A*26
2016-08-27 10:23	$WIMWD,44.4,T,33.5,M,2.1,N,1.1,M*58
2016-08-27 10:23	$GPGSA,A,3,22,23,1,14,31,32,11,3,26,,,,2.0,1.1,1.6*36
2016-08-27 10:23	$GPRMC,002316.00,A,3645.8334,S,14419.2887,E,0.0,84.3,270816,10.9,E,A*27
2016-08-27 10:23	$WIMDA,30.2298,I,1.0237,B,14.0,C,,,47.2,,2.9,C,55.4,T,44.5,M,1.2,N,0.6,M*57
2016-08-27 10:23	$HCHDG,293.6,0.0,E,10.9,E*74
2016-08-27 10:23	$WIMWV,120.4,R,1.4,N,A*21
2016-08-27 10:23	$WIMWD,65.1,T,54.2,M,1.4,N,0.7,M*59
2016-08-27 10:23	$GPGSA,A,3,22,23,1,14,31,32,11,3,26,,,,2.0,1.1,1.6*36
2016-08-27 10:23	$GPRMC,002317.00,A,3645.8334,S,14419.2886,E,0.0,20.0,270816,10.9,E,A*2A
2016-08-27 10:23	$WIMDA,30.2298,I,1.0237,B,14.0,C,,,47.2,,2.9,C,82.0,T,71.1,M,1.5,N,0.8,M*52
2016-08-27 10:23	$HCHDG,293.6,0.0,E,10.9,E*74
2016-08-27 10:23	$WIMWV,139.8,R,1.5,N,A*24
2016-08-27 10:23	$WIMWD,84.5,T,73.6,M,1.5,N,0.8,M*5D
2016-08-27 10:23	$GPGSA,A,3,22,23,1,14,31,32,11,3,26,,,,2.0,1.1,1.6*36
2016-08-27 10:23	$GPRMC,002318.00,A,3645.8334,S,14419.2886,E,0.0,218.6,270816,10.9,E,A*1A
2016-08-27 10:23	$WIMDA,30.2298,I,1.0237,B,14.0,C,,,47.2,,2.9,C,96.6,T,85.7,M,1.9,N,1.0,M*59
2016-08-27 10:23	$HCHDG,293.6,0.0,E,10.9,E*74
2016-08-27 10:23	$WIMWV,167.6,R,1.6,N,A*22
2016-08-27 10:23	$WIMWD,113.8,T,102.9,M,1.4,N,0.7,M*59
2016-08-27 10:23	$GPGSA,A,3,22,23,1,14,31,32,11,3,26,,,,2.0,1.1,1.6*36
2016-08-27 10:23	$GPRMC,002319.00,A,3645.8334,S,14419.2886,E,0.0,94.9,270816,10.9,E,A*22
2016-08-27 10:23	$WIMDA,30.2298,I,1.0237,B,14.0,C,,,47.1,,2.8,C,117.4,T,106.5,M,1.4,N,0.7,M*52
2016-08-27 10:23	$HCHDG,293.6,0.0,E,10.9,E*74
2016-08-27 10:23	$WIMWV,181.7,R,1.4,N,A*29
2016-08-27 10:23	$WIMWD,126.2,T,115.3,M,1.4,N,0.7,M*59
2016-08-27 10:23	$GPGSA,A,3,22,23,1,14,31,32,11,3,26,,,,2.0,1.1,1.6*36
2016-08-27 10:23	$GPRMC,002320.00,A,3645.8333,S,14419.2884,E,0.0,6.0,270816,10.9,E,A*1F
